"City","State","Latitude","Longitude"
"Lowell","WI",43.340272,-88.81705
"Benton Heights","MI",42.131151,-86.407245
"Hannibal","MO",39.708379,-91.358482
"Waterville","WA",47.647076,-120.071179
"Lowes Island","VA",39.05983,-77.352207
"Haskell","TX",33.157603,-99.733701
"Pennsauken","NJ",39.956224,-75.05795
"McKinley Park","AK",63.732778,-148.914167
"Laurel","NE",42.429445,-97.08977
"Tyro","AR",33.835659,-91.720685
"Mimosa Park","LA",29.906317,-90.356191
"Detroit","OR",44.734011,-122.149798
"Lajitas","TX",29.261587,-103.776579
"Courtdale","PA",41.280081,-75.912142
"Grand Terrace","CA",34.033903,-117.313654
"Las Croabas","PR",18.364674,-65.625995
"Sutersville","PA",40.236182,-79.799212
"Seminole","OK",35.228468,-96.694356
"Stoneville","NC",36.466527,-79.906985
"Holland","OR",42.127616,-123.538953
"Santa Teresa","NM",31.855938,-106.639158
"Colchester","IL",40.426431,-90.792632
"Ipswich","MA",42.67926,-70.841161
"Lawrence Park","PA",42.152279,-80.023111
"Olive Branch","MS",34.96176,-89.829532
"Muir Beach","CA",37.862149,-122.581367
"Lafontaine","KS",37.399223,-95.84526
"Palermo","ND",48.339741,-102.229056
"Jericho","NY",40.792044,-73.539848
"Wildwood","TX",30.524095,-94.441584
"Berrien Springs","MI",41.946434,-86.338905
"Glendale","FL",30.862963,-86.114385
"Bull Run","VA",38.783726,-77.520545
"Vail","IA",42.061931,-95.199994
"Bank Lick","KY",38.909785,-84.579665
"London","OH",39.886449,-83.448253
"Celina","TX",33.324559,-96.784442
"Lovell","WY",44.837453,-108.389561
"Lindon","UT",40.343286,-111.720761
"Von Ormy","TX",29.289126,-98.644465
"Piedmont","OH",40.188401,-81.196495
"Wellington","KY",38.216459,-85.669128
"Crane","IN",38.891159,-86.903894
"Cauthron","AR",34.920933,-94.297436
"Shirley","AR",35.656188,-92.319322
"Millersburg","OR",44.680955,-123.061483
"Harmony","ME",44.973946,-69.54616
"Quasqueton","IA",42.394432,-91.761004
"Lamourie","LA",31.131854,-92.411801
"Lake Mary","FL",28.758883,-81.317845
"Lynn","MA",42.466763,-70.949494
"Tea","SD",43.446367,-96.835885
"Waukeenah","FL",30.411315,-83.952943
"Westwood","KY",38.483137,-82.669884
"Barton","AL",34.738701,-87.891146
"Grove","OK",36.597634,-94.792902
"Dean","MT",45.404665,-109.69045
"Lake Wissota","WI",44.92635,-91.300987
"Houston","PA",40.246459,-80.211447
"Monroe City","IN",38.615326,-87.354461
"Maysville","AR",36.403689,-94.601888
"Plum Branch","SC",33.848738,-82.259846
"Buffalo","ND",46.919699,-97.549539
"Chelsea","ME",44.250347,-69.717266
"Bellwood","FL",28.505,-80.784499
"Harmony","MD",38.779003,-75.880491
"Duncansville","PA",40.423406,-78.433903
"Elgin","TN",36.332299,-84.60633
"Pengilly","MN",47.332715,-93.197143
"Merriam Woods","MO",36.713949,-93.161847
"McNair","MS",31.638499,-91.042048
"Laguna Woods","CA",33.610301,-117.72533
"Forman","ND",46.107742,-97.636486
"North Henderson","IL",41.089204,-90.47541
"Carbon","TX",32.27069,-98.828672
"Garland","NE",40.94473,-96.985582
"Watson","AR",33.895104,-91.256227
"Obion","TN",36.258957,-89.191735
"Opdyke","TX",33.593148,-102.275454
"Villegreen","CO",37.305851,-103.520222
"Orangeville","PA",41.2086815,-78.466674
"Bonnie Doone","NC",35.095163,-78.955583
"Conquest","NY",43.121177,-76.648003
"Atkinson","NC",34.528501,-78.171107
"Donnelly","ID",44.730965,-116.078276
"Webster","PA",40.185071,-79.848658
"Blooming Prairie","MN",43.866629,-93.051031
"Dickson City","PA",41.471469,-75.607688
"Flaxton","ND",48.898639,-102.392391
"Lamont","KS",38.112523,-96.026659
"Stone","ID",42.016308,-112.695257
"Westwood","KS",39.040561,-94.616901
"Salisbury","VT",43.896451,-73.099836
"Kent","AL",32.619021,-85.948572
"Garden Grove","CA",33.773905,-117.941448
"Cullom","IL",40.877812,-88.269218
"Thomas","PA",40.23757,-80.093943
"Fletcher","OH",40.144775,-84.112441
"Cerro Gordo","NC",34.322112,-78.926416
"Marley","IL",41.548643,-87.925609
"Hooper Bay","AK",61.531111,-166.096667
"Lake Hamilton","FL",28.044464,-81.627854
"Meire Grove","MN",45.629687,-94.869183
"Bakerstown Station","PA",40.655344,-79.972557
"Bangor","PA",40.865651,-75.206568
"Laurel Bay","SC",32.450191,-80.784829
"La Mesa","CA",32.767829,-117.023084
"Edmondson","AR",35.106481,-90.310375
"Union Valley","TX",32.927344,-96.25109
"East Rochester","OH",40.74617,-81.035094
"Henderson","WV",38.833692,-82.1382
"Smithville Flats","NY",42.395072,-75.807972
"Nankin","OH",40.921445,-82.281828
"Cobb Island","MD",38.258463,-76.843858
"Turnersville","NJ",39.77317,-75.051281
"North Rock Springs","WY",41.643575,-109.265684
"Colfax","KY",38.21258,-83.63408
"Summerfield","OH",39.796739,-81.335949
"Wheeler Ridge","CA",35.004413,-118.949546
"Westphalia","IN",38.862824,-87.225569
"Sylvester","GA",31.530735,-83.835454
"Buffalo","MO",37.643929,-93.092409
"Licking","MO",37.499488,-91.857098
"New Buffalo","PA",40.454252,-76.969699
"White Mills","PA",41.5262,-75.203508
"McCaskill","AR",33.916778,-93.641569
"Frenchburg","KY",37.950916,-83.625745
"Red Shirt","SD",43.667489,-102.898797
"Hewlett","NY",40.643159,-73.695686
"Lamar","PA",41.016177,-77.531103
"White Mountain Lake","AZ",34.348651,-109.997889
"Ogden","UT",41.223,-111.97383
"Sleepy Hollow","CA",33.947792,-117.778668
"McBean","GA",33.243479,-81.950672
"Overton","NE",40.73862,-99.537605
"Gurdon","AR",33.920937,-93.154059
"Erie","PA",42.129224,-80.085059
"Whitneyville","ME",44.722021,-67.523326
"Dexter","OR",43.915959,-122.822851
"Muleshoe","TX",34.226468,-102.723826
"Chateaugay","NY",44.926434,-74.079608
"Harwick","PA",40.556734,-79.805049
"Watova","OK",36.621261,-95.679596
"Dalton","GA",34.769802,-84.970223
"Wellington","KS",37.2653,-97.371712
"Nicholson","GA",34.113999,-83.431549
"Tallula","IL",39.944493,-89.937334
"Middle Grove","MO",39.395038,-92.270456
"Jemez Pueblo","NM",35.613917,-106.725868
"New Leipzig","ND",46.376117,-101.939872
"Interlaken","CA",36.951341,-121.733838
"Rome","MS",33.963168,-90.478427
"Bent","NM",33.158695,-105.856933
"Lennox","SD",43.354148,-96.891995
"Ainsworth","IN",41.487815,-87.258646
"Phelps","KY",37.512885,-82.150133
"Foley","AL",30.406587,-87.683597
"Willsboro","NY",44.357272,-73.392074
"Downsville","MD",39.548431,-77.801661
"Poth","TX",29.069692,-98.081951
"Cosmos","MN",44.936073,-94.696661
"Firesteel","SD",45.424706,-101.285148
"Crandall","MS",31.974595,-88.532256
"Loysville","PA",40.365639,-77.34443
"Coleharbor","ND",47.544165,-101.223766
"Tennessee City","TN",36.093116,-87.514737
"Jacobs","TX",34.080076,-100.213723
"Meyers Chuck","AK",55.740833,-132.256389
"Warnerton","LA",30.99018,-90.183145
"Bear Creek","CA",37.297164,-120.417409
"Ruby","AK",64.739444,-155.486944
"Mineral","WA",46.717052,-122.180942
"Almond","NC",35.369815,-83.565164
"East Hampton","CT",41.575933,-72.502588
"Ducor","CA",35.89162,-119.047324
"Atlantic Beach","NC",34.69905,-76.740211
"Oswegatchie","NY",44.18284,-75.070196
"Scanlon","MN",46.70661,-92.428246
"West Union","SC",34.759818,-83.04293
"Fall Branch","TN",36.418157,-82.623764
"Castleton","VT",43.610622,-73.179832
"Tribes Hill","NY",42.955352,-74.285133
"Carolina Beach","NC",34.035173,-77.893597
"Mount Carmel","UT",37.247206,-112.664377
"Buffalo","MN",45.171908,-93.874694
"Selma","KS",38.13475,-95.123306
"Smarr","GA",32.985411,-83.882129
"Lane","OK",34.302654,-96.011825
"Ocheyedan","IA",43.416078,-95.53473
"Bellmore","NY",40.668712,-73.527071
"Lake Havasu City","AZ",34.483901,-114.322455
"Petal","MS",31.346563,-89.26006
"Auburn","CA",38.896565,-121.07689
"Cullen","LA",32.969026,-93.450728
"Ewell","MD",37.99568,-76.033269
"Kent","AR",33.625668,-92.813218
"Causey","NM",33.879257,-103.126613
"Annette","AK",55.061667,-131.541667
"Fletcher","OK",34.827071,-98.267999
"Dakota City","NE",42.41555,-96.418364
"Hidden Timber","SD",43.22945,-100.42152
"West Point","IA",40.716704,-91.450154
"Point Harbor","NC",36.078775,-75.794629
"Kirkersville","OH",39.959508,-82.595718
"Solon","NY",42.597014,-76.016869
"Topsfield","MA",42.637594,-70.949497
"Stonybrook","PA",39.987043,-76.644133
"Brookesmith","TX",31.550436,-99.118662
"Ethel","MO",39.894752,-92.737972
"Franklin Park","NJ",40.443873,-74.543196
"Normal","IL",40.514203,-88.990631
"Buckhorn","KY",37.348702,-83.476296
"Marcus","SD",44.658045,-102.273219
"Prospect Heights","IL",42.095305,-87.937569
"Forest Center","MN",47.794901,-91.307635
"Snowflake","AZ",34.51337,-110.078449
"Morro Bay","CA",35.365808,-120.849901
"Bennett","NC",35.565421,-79.543636
"Pencer","MN",48.699144,-95.637761
"Beattie","KS",39.861112,-96.419736
"Haiwee","CA",36.146608,-117.975913
"Deal","NJ",40.243168,-74.000693
"Sylva","NC",35.373711,-83.22598
"Berkshire","NY",42.30424,-76.186596
"Cuartelez","NM",35.992825,-106.019679
"Broughton","IL",37.93477,-88.461993
"Portland","ND",47.498319,-97.370369
"Canton","GA",34.236762,-84.490762
"Churchill","MT",45.750762,-111.304402
"Hedrick","IA",41.172513,-92.308795
"Knoxville","MO",39.446121,-94.016885
"Paramount","CA",33.88946,-118.159791
"Fowler","IN",40.616704,-87.320852
"Saint Anthony","IA",42.122209,-93.194926
"Birch Run","MI",43.250858,-83.794131
"Rossville","GA",34.983131,-85.286068
"Sun Valley","AZ",34.98058,-110.058175
"Dupont","OH",41.056439,-84.304391
"Bremen","AL",33.994546,-86.970003
"Atascocita","TX",29.998831,-95.176598
"Southern Shores","NC",36.139053,-75.731572
"Grafton","MA",42.207039,-71.685624
"Forsyth","GA",33.034297,-83.938242
"Bates","AR",34.908156,-94.386884
"Elkatawa","KY",37.557034,-83.426848
"Watonga","OK",35.848713,-98.436911
"Tichigan","WI",42.828905,-88.19759
"Broadmoor","CA",37.6866,-122.482751
"Lund","ID",42.642697,-111.888567
"Tucker","GA",33.854548,-84.217142
"Farson","IA",41.122314,-92.255188
"Livia","KY",37.570881,-87.104441
"Las Palomas","NM",33.062571,-107.298361
"Glen Ellyn","IL",41.877529,-88.067012
"Lynbrook","NY",40.654825,-73.671797
"Stanford","IL",40.434761,-89.217864
"Dyer","TN",36.066735,-88.993955
"Westmont","PA",40.31563,-78.951693
"Nemah","WA",46.512045,-123.885993
"Saint Charles","IL",41.914195,-88.308687
"Hollywood","MD",38.345959,-76.571624
"West Mystic","CT",41.350654,-71.982018
"Mosher","SD",43.468332,-100.298189
"Plattville","IL",41.531697,-88.381457
"Letts","IA",41.32836,-91.237097
"Meadowlands","MN",47.071884,-92.732416
"Gibson Island","MD",39.074277,-76.423848
"Neutral","KS",37.097841,-94.794953
"Christopher Creek","AZ",34.315314,-111.017074
"Dry Creek","LA",30.669086,-93.045433
"Finlay","TX",31.258737,-105.629961
"Geneseo","IL",41.44809,-90.154285
"Sacaton","AZ",33.076723,-111.739299
"Tonto Basin","AZ",33.831711,-111.294575
"Colfax","LA",31.519062,-92.706816
"Fruitland","TX",33.501775,-97.795589
"Wheatland","IA",41.831691,-90.838201
"Circleville","WV",38.670948,-79.49116
"Eagle Butte","SD",45.00248,-101.233485
"Stippville","KS",37.222281,-94.837737
"Topsfield","ME",45.418959,-67.73556
"Saint Michaels","MD",38.785117,-76.224392
"Chittenden","VT",43.707845,-72.948163
"Gate City","VA",36.637877,-82.580988
"Boschertown","MO",38.833384,-90.470118
"Green Valley","MN",44.526902,-95.757243
"Ethel","MS",33.120406,-89.465906
"Germantown","IA",42.953317,-95.780846
"Fireco","WV",37.644838,-81.198155
"Sheep Springs","NM",36.143056,-108.710278
"Foresthill","CA",39.020177,-120.817989
"Glen White","WV",37.730392,-81.279824
"Ina","IL",38.151161,-88.903955
"Chuichu","AZ",32.752002,-111.783184
"Nebo","IL",39.442548,-90.790961
"Conway","FL",28.502781,-81.330625
"Keene","TX",32.396809,-97.323904
"Atkinson","NH",42.838422,-71.147004
"Redondo","WA",47.348433,-122.323456
"Hartsville","NY",42.247015,-77.693881
"Montgomeryville","PA",40.247329,-75.243785
"Fenwood","WI",44.866077,-90.015408
"Stockton","UT",40.452722,-112.360782
"Neah Bay","WA",48.368122,-124.62496
"Renner","SD",43.64553,-96.728384
"Melder","LA",31.105187,-92.636532
"Penney Farms","FL",29.979685,-81.810374
"Sardinia","IN",39.153941,-85.631085
"Darby","PA",39.918446,-75.259072
"Moiese","MT",47.370486,-114.265952
"Carmel","ME",44.797569,-69.051154
"Central Garage","VA",37.744031,-77.13164
"Lone Star","TX",32.944019,-94.707151
"Genesee","ID",46.55072,-116.925436
"Beardsley","AZ",33.661426,-112.379052
"Westville","FL",30.774633,-85.851601
"Akiak","AK",60.912222,-161.213889
"Naches","WA",46.730958,-120.699516
"Laurel","MT",45.669116,-108.771533
"Myakka City","FL",27.349767,-82.161478
"Attapulgus","GA",30.749081,-84.4838
"Mint Hill","NC",35.179589,-80.64729
"Bfalo","PR",18.417417,-66.574928
"Millersburg","PA",40.539529,-76.96081
"Harcuvar","AZ",33.760031,-113.653264
"Stitzer","WI",42.926656,-90.623182
"Orange City","FL",28.948876,-81.298674
"Sumiton","AL",33.755661,-87.049999
"WaKeeney","KS",39.025008,-99.879566
"Redbank","TX",33.525955,-94.258809
"Priddy","TX",31.675432,-98.508931
"Montgomery","TX",30.388261,-95.696336
"Lyndell","PA",40.059548,-75.744659
"San Juan Pueblo","NM",36.052801,-106.070579
"Sparks","OK",35.61207,-96.844916
"Zortman","MT",47.917774,-108.526258
"Gwynedd Valley","PA",40.184275,-75.256288
"Black Oak","IN",41.566147,-87.39365
"Heltonville","IN",38.927828,-86.375546
"New Troy","MI",41.876433,-86.549743
"Laurel","MS",31.694051,-89.130612
"Portia","AR",36.086459,-91.067346
"Torrington","WY",42.062465,-104.184394
"Paw Creek","NC",35.274862,-80.938406
"Horseshoe Bay","TX",30.548246,-98.337802
"Fence Lake","NM",34.653376,-108.677852
"Crescent City","IL",40.770035,-87.858925
"Gaylesville","AL",34.268426,-85.556906
"Braddock","PA",40.403402,-79.868382
"Belleville","WI",42.859724,-89.538177
"Coppock","IA",41.162242,-91.711278
"Sublett","KY",37.677594,-83.037391
"Allendale","WY",42.814687,-106.310581
"New Albany","KS",37.568376,-95.937761
"Coryville","PA",41.882564,-78.398351
"Cearfoss","MD",39.700928,-77.77555
"Atkinson","NE",42.531391,-98.978152
"Wills Point","TX",32.709296,-96.008302
"Tabor","NJ",40.87121,-74.479878
"Ketchum","ID",43.68074,-114.363662
"Mynard","NE",40.97361,-95.923898
"Grantwood Village","MO",38.550331,-90.354561
"Underwood","ND",47.456386,-101.137096
"Hot Springs","VA",37.99957,-79.831719
"Parishville","NY",44.62867,-74.813804
"Mansfield","PA",41.807296,-77.077468
"West Boylston","MA",42.366759,-71.785627
"Signal Mountain","TN",35.122573,-85.343849
"Pleasant Hill","NM",34.520351,-103.073835
"Dexterville","WI",44.376351,-90.110687
"Touchet","WA",46.039857,-118.672208
"Doyleville","CO",38.452506,-106.6120295
"Buffalo","MT",46.82107,-109.828521
"Tampa","KS",38.547231,-97.153077
"Ferndale","PA",40.5350805,-77.7440195
"Dover","GA",32.577117,-81.71511
"Towns","GA",32.004344,-82.754586
"Ross","OH",39.312278,-84.650503
"Laplace","LA",30.066591,-90.480085
"Lancaster","TX",32.59208,-96.756108
"Corning","CA",39.927657,-122.179156
"Poultney","VT",43.517013,-73.23622
"Port Washington","OH",40.328124,-81.520673
"Holland","PA",40.172887,-74.992669
"Berrydale","FL",30.899351,-87.013854
"Clairfield","TN",36.55008,-83.950201
"Buford","ND",47.998632,-103.991321
"Washington Heights","NY",41.470094,-74.415712
"Fort Ogden","FL",27.087277,-81.952308
"Perth Amboy","NJ",40.506772,-74.265423
"Rome","MO",36.841446,-92.773503
"Tenafly","NJ",40.925377,-73.962915
"Totz","KY",36.944813,-83.117669
"Leesburg","IN",41.33199,-85.849992
"Etna","OH",39.957286,-82.681834
"Norwich","NY",42.531184,-75.523515
"Bowdoin","MT",48.392774,-107.606215
"Lostwood","ND",48.47558,-102.424064
"Whiteash","IL",37.785369,-88.92931
"Rome","ME",44.585064,-69.869219
"Sparta","GA",33.275701,-82.976259
"Lake of the Woods","AZ",34.163932,-109.989552
"Freeman","WA",47.51823,-117.195754
"Biddeford","ME",43.492584,-70.453384
"Shinrock","OH",41.346161,-82.521283
"West Point","IL",40.255046,-91.182642
"Withee","WI",44.956357,-90.597635
"Bennett","NM",32.067904,-103.211011
"Mount Moriah","MO",40.329728,-93.79467
"Lonerock","OR",45.089025,-119.883075
"Learned","MS",32.196817,-90.54732
"Rice","VA",37.275153,-78.291384
"Cedar Grove","FL",30.171035,-85.625205
"Rosboro","AR",34.287598,-93.508519
"Lakeport","TX",32.409041,-94.70521
"Greentown","OH",40.927557,-81.402612
"Collinsville","CT",41.812876,-72.920102
"Atomic City","ID",43.444909,-112.81277
"Norwood","OH",39.155615,-84.459664
"Reedsville","OH",39.121467,-81.747631
"Iron Mountain Lake","MO",37.693106,-90.622624
"Richfield","WI",43.256116,-88.193982
"Waddington","NY",44.8645,-75.204102
"Carrabassett","ME",45.077833,-70.212011
"Shady Grove","AL",31.909597,-86.162459
"Lexington","WA",46.187334,-122.90539
"Nekoma","ND",48.577224,-98.370392
"Kongiganak","AK",59.953273,-162.895133
"Biggersville","MS",34.835646,-88.558661
"Ware","TX",36.184754,-102.710197
"De Graff","OH",40.311996,-83.91577
"Wakulla","NC",34.792663,-79.255038
"Corral Viejo","PR",18.079962,-66.652951
"Arbon Valley","ID",42.884672,-112.594284
"Brazos","NM",36.751403,-106.561424
"Leon","IA",40.739724,-93.747722
"Granville","IL",41.261147,-89.227586
"Bella Villa","MO",38.541164,-90.280115
"Old Westbury","NY",40.788711,-73.599572
"Rosenhayn","NJ",39.478171,-75.131293
"Harmony","NC",35.955691,-80.771735
"Blakeley","MN",44.610796,-93.853298
"Dove Creek","CO",37.7661,-108.905939
"Kettering","OH",39.689504,-84.168827
"Wall","SD",43.992489,-102.241548
"Ramona","SD",44.119417,-97.216453
"South Bloomfield","OH",39.718396,-82.986849
"Apgar","MT",48.527745,-113.993174
"Singleton","CO",39.443044,-105.601948
"Mission","KS",39.027783,-94.655791
"Lansford","ND",48.628909,-101.375716
"Lerna","IL",39.418369,-88.288655
"Shenorock","NY",41.331761,-73.738188
"Green Valley","MD",39.309271,-77.297207
"McDonald","KS",39.78583,-101.375718
"North Attleborough","MA",41.984051,-71.33303
"Deckerville","AR",35.445084,-90.305098
"Lumber City","GA",31.929349,-82.679583
"Hunter","MO",36.890609,-90.849012
"McAfee","NJ",41.178429,-74.540437
"Ord","NE",41.603343,-98.926199
"Turtle Lake","WI",44.0608855,-90.411311
"Miller","IA",43.184125,-93.600212
"Saint Paul","OR",45.21123,-122.976766
"Overton","NV",36.543308,-114.446924
"Standish","CA",40.365177,-120.422164
"Fulton","WI",42.808062,-89.127614
"Level Plains","AL",31.299616,-85.777991
"Port Republic","NJ",39.520673,-74.485707
"Arion","IA",41.949155,-95.463611
"Eureka","MO",38.502554,-90.627904
"Fitzpatrick","AL",32.216534,-85.888843
"Crabapple","GA",34.090098,-84.338536
"Hollowayville","IL",41.365035,-89.297032
"Kamrar","IA",42.3922,-93.729385
"Colwell","IA",43.155805,-92.594074
"Bannock","OH",40.098681,-80.97704
"Brownsville","LA",32.48709,-92.154302
"Rote","PA",41.078958,-77.42026
"Braden","TN",35.379528,-89.568133
"Bohners Lake","WI",42.623073,-88.280369
"Alsuma","OK",36.099044,-95.887384
"Amsterdam","MT",45.757984,-111.319959
"Pittsburg","OK",34.7171,-95.873773
"Pacific Grove","CA",36.617737,-121.916622
"Au Gres","MI",44.048629,-83.695816
"Lemannville","LA",30.109366,-90.920375
"Ocean Gate","NJ",39.926785,-74.13375
"Honea Path","SC",34.446502,-82.391512
"El Rito","NM",36.343352,-106.188636
"Red Rock","MT",44.900475,-112.81891
"Whitewater","MO",37.237553,-89.795928
"Wauseon","OH",41.549218,-84.141615
"Bryan","OH",41.474773,-84.552451
"Blockton","IA",40.615545,-94.477183
"Schaffer","MI",45.761077,-87.298744
"Loomis","NE",40.478342,-99.50705
"Babbs","OK",34.95234,-99.083303
"Kennedyville","MD",39.305389,-75.994944
"Yanush","OK",34.71377,-95.337642
"Hewlett Neck","NY",40.623437,-73.698187
"Templeton","VA",37.082372,-77.354978
"Smallwood","NY",41.665367,-74.81933
"Earlville","IL",41.589475,-88.922027
"Minooka","IL",41.455308,-88.26173
"Wallace","CA",38.194085,-120.977996
"Murphytown","WV",39.233964,-81.443454
"Eagle Nest","NM",36.554754,-105.263618
"Thornton","WI",44.796647,-88.691214
"Cornwall","CT",41.843706,-73.329285
"Lovingston","VA",37.759864,-78.870855
"Grove City","FL",26.91423,-82.327039
"Helmville","MT",46.866603,-112.961164
"Corinth","NY",43.244517,-73.832345
"Prospect Valley","CO",40.073594,-104.414956
"Winnett","MT",47.002759,-108.352072
"Hollywood","MO",36.054236,-90.186207
"Knightstown","IN",39.795601,-85.526363
"Westphalia","IA",41.71971,-95.394722
"Bridgeport","WA",48.0082,-119.671164
"Cameron","TX",30.853245,-96.97693
"Brandywine","WV",38.62484,-79.244761
"Souris","ND",48.909738,-100.681539
"Palmas","PR",17.987189,-66.025442
"Turley","NM",36.752505,-107.76506
"Parkersburg","WV",39.266742,-81.561514
"New Ulm","MN",44.312463,-94.460529
"Millville","CA",40.54932,-122.175279
"Dennard","AR",35.756744,-92.524605
"Sappho","WA",48.070079,-124.279378
"Richwood","LA",32.448757,-92.084856
"Coleman","WI",45.064984,-88.03427
"Gunlock","UT",37.286089,-113.763299
"Ainsworth","IA",41.28891,-91.552384
"Bendena","KS",39.741108,-95.179418
"Old Monroe","MO",38.931718,-90.746792
"Bolton","NC",34.320724,-78.40195
"Ozona","MS",30.584635,-89.663676
"Wessington Springs","SD",44.079157,-98.569536
"Corunna","MI",42.981973,-84.117745
"Eagle Lake","FL",27.978357,-81.756469
"Worley","ID",47.400736,-116.917125
"Gorgas","AL",33.649275,-87.208056
"Garwood","TX",29.449688,-96.396912
"Burnettown","SC",33.515415,-81.849001
"Winstonville","MS",33.910111,-90.751488
"Newfoundland","KY",38.131473,-83.099339
"Trinway","OH",40.14118,-82.009859
"Medley","FL",25.840653,-80.32644
"Riverside","CA",33.953349,-117.396156
"Eldorado","TX",30.860174,-100.60093
"Peoria","KS",38.584735,-95.14886
"Bunnlevel","NC",35.309606,-78.780299
"Whitewater","MT",48.759451,-107.627591
"Edgar","MT",45.46467,-108.852366
"Millerstown","PA",40.5997965,-78.4768225
"Natural Bridge","VA",37.630134,-79.543094
"Eau Claire","MI",41.985045,-86.299739
"Nounan","ID",42.477702,-111.451047
"Beaumont","MS",31.16935,-88.920044
"Maple Hill","KS",39.084722,-96.028047
"Linn Creek","MO",38.03809,-92.711573
"Dike","IA",42.46415,-92.62825
"Gueydan","LA",30.02604,-92.508469
"Chouteau","OK",36.189878,-95.366807
"Camp Lake","WI",42.534741,-88.143698
"Zion","KY",37.814765,-87.48362
"Limestone","IL",41.132143,-87.968352
"Antoine","AR",34.036215,-93.420734
"Foxborough","MA",42.065377,-71.247831
"Shiremanstown","PA",40.223423,-76.953586
"Pleasant Hill","NC",36.257356,-80.883406
"Blountville","TN",36.533159,-82.326806
"Blacksville","WV",39.720079,-80.212016
"Lowes","KY",36.885612,-88.773943
"Fincastle","VA",37.499299,-79.877265
"Stonington","CO",37.29363,-102.187402
"De Smet","MT",46.933256,-114.103168
"Amsterdam","MO",38.349742,-94.589122
"West Bend","IA",42.956914,-94.441084
"Honoraville","AL",31.850708,-86.406079
"McCuneville","OH",39.628958,-82.234315
"Lakehurst","NJ",40.014561,-74.311257
"Powderville","MT",45.758887,-105.115254
"Summit","KY",38.004376,-84.392565
"Cashion","AZ",33.43532,-112.297933
"McGrady","NC",36.343463,-81.224812
"Saint Anthony","ID",43.966301,-111.682185
"Tavistock","NJ",39.876225,-75.029614
"Diagonal","IA",40.809435,-94.342179
"Corinne","WV",37.572892,-81.356491
"Priest Point","WA",48.036762,-122.250973
"Opal Cliffs","CA",36.960784,-121.964127
"Hollywood","MS",34.745378,-90.358154
"Lignum","VA",38.415961,-77.82666
"Algonquin","IL",42.16558,-88.294249
"Hico","WV",38.117333,-81.005655
"Cataract","WI",44.087741,-90.842359
"Hutchins","GA",33.841786,-83.16793
"Meyersdale","PA",39.813693,-79.024748
"Pelham","GA",31.127685,-84.151847
"Ancor","OH",39.137283,-84.317716
"Winnsboro","TX",32.957345,-95.290222
"Stoneham","CO",40.60554,-103.666613
"Sandersville","MS",31.786548,-89.032276
"Rose","OK",36.223482,-95.053463
"Dexter","OH",39.087298,-82.212926
"Mekoryuk","AK",60.388056,-166.185
"Westhaven","CA",41.035958,-124.111179
"Branchburg Park","NJ",40.572325,-74.684882
"Eddyville","OR",44.634563,-123.7765
"Bach","MI",43.683073,-83.355789
"Catoosa","OK",36.192934,-95.7696
"Linton","GA",33.116538,-82.992647
"College Station","AR",34.708148,-92.221259
"Harmony","NJ",40.746765,-75.137397
"Kincaid","KS",38.084196,-95.153586
"Commerce","CA",34.000569,-118.159793
"Port Madison","WA",47.702597,-122.524302
"Alanreed","TX",35.212549,-100.734306
"Thunder Hawk","SD",45.938334,-101.974868
"Rivergrove","OR",45.39123,-122.733429
"Parshall","ND",47.953346,-102.134891
"McBaine","MO",38.88698,-92.446575
"Lewis","WI",45.710784,-92.402418
"North Brunswick","NJ",40.450441,-74.479996
"Arapahoe","CO",38.850007,-102.182128
"Stonington","CT",41.335933,-71.905904
"Germantown","IL",38.55366,-89.538421
"Colgate","WI",43.193062,-88.20676
"Herreid","SD",45.834714,-100.069284
"Los Trujillos","NM",34.646726,-106.76086
"Crystal City","MO",38.221166,-90.379009
"Beach Ridge","NY",43.084779,-78.823091
"Baltimore","MD",39.290385,-76.612189
"Gem Lake","MN",45.057466,-93.03244
"Claridge","PA",40.365624,-79.622265
"Wortham","TX",31.787942,-96.462481
"Stone Harbor","NJ",39.050947,-74.757942
"Berkeley","MO",38.754495,-90.331226
"Richwood","KY",38.920618,-84.624944
"Pierce City","MO",36.945895,-94.00021
"Relampago","TX",26.085077,-97.918612
"Purley","TX",33.09123,-95.262166
"Pittston","ME",44.221737,-69.7556
"Deloit","IA",42.097765,-95.322497
"Sadler","TX",33.682606,-96.848335
"Fort Meade","FL",27.752253,-81.801749
"Roselle","NJ",40.664269,-74.263202
"Thornton","WA",47.120726,-117.389633
"San Bruno","CA",37.63049,-122.411084
"Buckland","MA",42.592307,-72.79176
"Emerald","WI",45.083019,-92.258244
"Alcolu","SC",33.750995,-80.214246
"Chicopee","GA",34.253436,-83.84351
"West City","IL",37.993939,-88.935069
"Wheatland","IN",38.663659,-87.30946
"Methuen","MA",42.726202,-71.190892
"Charleston","WV",38.34982,-81.632623
"Jonesboro","TX",31.614603,-97.876694
"Aromas","CA",36.888565,-121.643001
"Mize","MS",31.868493,-89.555902
"Garland","ME",45.038395,-69.16032
"Letts","IN",39.235051,-85.564973
"Tusayan","AZ",35.973595,-112.126557
"Temelec","CA",38.266582,-122.492759
"Waihee","HI",20.930899,-156.510029
"Durbin","FL",30.087465,-81.461194
"Alabam","AR",36.152575,-93.681302
"Tipton","KS",39.343065,-98.470897
"Nemaha","NE",40.338335,-95.673045
"McFarland","WI",43.012498,-89.28984
"Jewell Junction","IA",42.310535,-93.639987
"Washington","GA",33.736795,-82.739309
"Essex Junction","VT",44.490605,-73.11096
"Knox","IN",41.295875,-86.625014
"Lake Clear","NY",44.367555,-74.232659
"Palermo","ME",44.407848,-69.473931
"Jolley","IA",42.478868,-94.71887
"New Martinsville","WV",39.644521,-80.857599
"Colquitt","LA",32.949864,-92.973772
"Reed","OK",34.904561,-99.719434
"Bridgeport","WI",43.009152,-91.057906
"Charters","KY",38.573687,-83.433243
"Orlovista","FL",28.538336,-81.460349
"Clarks","LA",32.026549,-92.139026
"Layhill","MD",39.092331,-77.044422
"Leonardsville","NY",42.808683,-75.252664
"Guymon","OK",36.686752,-101.505332
"New Smyrna Beach","FL",29.025819,-80.926998
"Atlantic Beach","NY",40.588994,-73.729021
"Bullhead","SD",45.765553,-101.080693
"Sylvester","WV",38.010384,-81.557613
"Granite Falls","WA",48.08399,-121.968742
"Almond","NY",42.322292,-77.738327
"Singleton","TX",30.652141,-95.958564
"Tannersville","NY",42.195644,-74.133751
"Brownsville","KY",37.192547,-86.267754
"Tamo","AR",34.110377,-91.759297
"Montoursville","PA",41.254246,-76.92052
"Stoneham","TX",30.341874,-95.912453
"Cherryplain","NY",42.629247,-73.358165
"Laurel","MD",39.099275,-76.848306
"Imperial","TX",31.272921,-102.69265
"Fort Atkinson","WI",42.928894,-88.837051
"South Mountain","TX",31.427665,-97.67752
"Haliimaile","HI",20.86707,-156.338135
"Superior","NE",40.020847,-98.070044
"Rhine","WI",43.862772,-87.95676
"Adams","IN",39.38255,-85.559973
"Silvana","WA",48.202321,-122.253759
"Wilmore","KS",37.335856,-99.21011
"Abanda","AL",33.100954,-85.529675
"Allegany","OR",43.425947,-124.032327
"McMillan","WI",44.729686,-90.142354
"Summit","MS",31.283787,-90.468431
"Tullahassee","OK",35.838769,-95.461533
"Stowe","PA",40.252595,-75.677409
"Stella","NE",40.233057,-95.773325
"Stephan","SD",44.248042,-99.453165
"Cutchogue","NY",41.010656,-72.485086
"Sylvarena","MS",32.010987,-89.380621
"Woodruff","KS",39.992788,-99.42649
"Newberry","SC",34.274583,-81.618718
"Sea Island","GA",31.183565,-81.349818
"Brice","OH",39.91812,-82.83212
"Converse","TX",29.518008,-98.316124
"Piedra Aguza","PR",18.033853,-66.494938
"Sunnyside","AK",57.982778,-136.252222
"Timberlane","IL",42.334742,-88.861214
"Ancram","NY",42.050647,-73.636236
"Hallam","PA",40.00482,-76.604132
"Loma Linda","CA",34.048347,-117.261153
"New Haven","WY",44.744151,-104.844694
"Findlay","OH",41.04422,-83.649932
"Shorewood","IL",41.52003,-88.201729
"Collbran","CO",39.240534,-107.961181
"Zarephath","NJ",40.536492,-74.574601
"Palmer","MI",46.440771,-87.593192
"Davidsville","PA",40.22702,-78.936414
"Arcola","IL",39.684755,-88.306437
"Taylor Landing","TX",29.86222,-94.131081
"Elmodel","GA",31.345734,-84.472412
"North Fork Village","OH",39.335897,-83.02907
"Ramona","OK",36.534317,-95.947383
"Glenwood","MN",45.650239,-95.389758
"Arrington","KS",39.462776,-95.536367
"Pride","KY",37.558379,-87.890854
"Old Fields","WV",39.134828,-78.949749
"Saint Clairsville","PA",40.156745,-78.510017
"New Berlin","WI",42.976403,-88.108422
"Tryon","NE",41.552772,-100.957655
"Petrolia","CA",40.325413,-124.286993
"Ty Ty","GA",31.47185,-83.646836
"Bosco","LA",32.290151,-92.089024
"Lake Creek","TX",33.447331,-95.588012
"Azalia","IN",39.091719,-85.847203
"Starksboro","VT",44.227278,-73.057343
"El Sobrante","CA",37.977145,-122.295247
"Brooklawn","NJ",39.878169,-75.120731
"Slidell","LA",30.275195,-89.781175
"Sterling","OH",40.967555,-81.848471
"Woods Cross","UT",40.871612,-111.89216
"Frye Island","ME",43.847298,-70.518944
"Husser","LA",30.679354,-90.33731
"Avalon","NJ",39.101225,-74.717662
"Margate City","NJ",39.327894,-74.503486
"Maple Hill","NC",34.661278,-77.696365
"Onida","SD",44.708038,-100.059845
"James Town","WY",41.555242,-109.516803
"Swormville","NY",43.038391,-78.697253
"Astor","FL",29.16248,-81.525349
"Evans","CO",40.37637,-104.692187
"Baldwin Park","CA",34.085287,-117.960898
"Arkansas City","KS",37.061974,-97.038371
"Arcola","IN",41.103659,-85.294141
"Bridgewater","ME",46.427822,-67.843356
"Craig","NE",41.785547,-96.363911
"Murraysville","NC",34.295725,-77.847484
"Emmonak","AK",62.777778,-164.523056
"Hamburg","AR",33.228176,-91.797629
"Harmon","OK",36.148712,-99.584173
"Warren","NH",43.923124,-71.892028
"Roslyn Estates","NY",40.794267,-73.660407
"Madeira","OH",39.190893,-84.363551
"New Haven","WV",38.986468,-81.973472
"Wellston","MO",38.672829,-90.299281
"Molena","GA",33.012072,-84.500201
"Val Verde","CA",34.444995,-118.657589
"Forest Home","AL",31.862374,-86.842758
"Garden Grove","FL",28.480275,-82.435095
"Fragaria","WA",47.463986,-122.531242
"Ward","CO",40.072208,-105.508332
"Lynnville","TN",35.376743,-87.006117
"Natural Dam","AR",35.648696,-94.394658
"Cammack Village","AR",34.778147,-92.349042
"Big Clifty","KY",37.545613,-86.153581
"Whiteson","OR",45.151506,-123.196771
"Dougherty","TX",33.941745,-101.086535
"North Amherst","MA",42.410367,-72.530921
"Dublin","PA",40.371771,-75.201563
"Ransom Canyon","TX",33.53342,-101.679606
"Cloverdale","VA",37.365135,-79.905595
"Chili","NM",36.105022,-106.149747
"El Campo","TX",29.196641,-96.269687
"Papaaloa","HI",19.975146,-155.220315
"Glenwood","MO",40.517528,-92.576301
"Nekoma","KS",38.473625,-99.442055
"Brownsville","MS",32.448754,-90.437039
"Monolith","CA",35.119966,-118.374249
"Jefferson","IA",42.015261,-94.377468
"Lincoln","MT",46.95494,-112.681707
"Fort Garland","CO",37.428897,-105.4339
"Gettysburg","PA",39.830929,-77.231095
"Sister Lakes","MI",42.072265,-86.199739
"Fort Washington","PA",40.141776,-75.209065
"Slickville","PA",40.459789,-79.523098
"Republic","PA",39.962575,-79.876714
"Merrill","WI",45.180522,-89.683459
"Pompey","NY",42.898956,-76.016033
"Kalida","OH",40.982829,-84.199391
"Hermitage Springs","TN",36.58089,-85.781366
"East Setauket","NY",40.941487,-73.105941
"Fayette","IA",42.841926,-91.802107
"Stanleyville","NC",36.20236,-80.280884
"Tetlin","AK",63.135051,-142.52388
"Delmar","IA",42.002245,-90.60708
"Sterling","OK",34.754296,-98.195496
"Culberson","NC",34.991749,-84.167692
"Coleta","IL",41.902251,-89.802337
"Madison","WV",38.067045,-81.819289
"Ozawkie","KS",39.233332,-95.466919
"Ewing","VA",36.636753,-83.431574
"Upper Sandusky","OH",40.827278,-83.281309
"Bowmanstown","PA",40.799816,-75.661855
"Wellington","NV",38.756299,-119.375995
"Hickory Hills","IL",41.725588,-87.825055
"Harrison","WI",44.8058065,-88.8992835
"Indian Village","IN",41.713937,-86.235562
"Greenfield","IA",41.305266,-94.461354
"Marlette","MI",43.326968,-83.08022
"Pleasant Dale","NE",40.79195,-96.932249
"Atlantic","PA",41.504776,-80.338955
"Ardara","PA",40.357847,-79.735045
"Old Mines","MO",38.015328,-90.755964
"Downsville","LA",32.626811,-92.41431
"Elton","WI",45.168302,-88.886498
"Muse","PA",40.292848,-80.200336
"Bridgewater","MI",42.160873,-83.902165
"Maupin","OR",45.17512,-121.081449
"Palmer Lake","CO",39.122214,-104.917204
"South Corning","NY",42.121741,-77.037189
"Curryville","MO",39.345599,-91.344872
"Stratton","CO",39.303328,-102.604645
"Grayling","MI",44.661404,-84.714751
"Sombrillo","NM",35.980024,-106.040023
"Fentress","TX",29.756058,-97.77639
"Caon","NM",35.656972,-106.735591
"Sawmills","NC",35.824854,-81.474537
"Wyoming","DE",39.118168,-75.558814
"Bryant Pond","ME",44.3784,-70.645899
"Nemo","SD",44.194153,-103.504912
"Freeman Spur","IL",37.861161,-88.997295
"Roane","TX",32.174039,-96.380259
"Bucktown","IN",38.994766,-87.260015
"Williamstown","PA",40.580087,-76.617742
"Fernandina Beach","FL",30.669682,-81.462592
"Tichnor","AR",34.140379,-91.270674
"Galena","MO",36.805338,-93.466579
"Maunaloa","HI",21.132114,-157.21132
"Westover","AL",33.349555,-86.535816
"Luck","NC",35.735936,-82.866251
"Silk Hope","GA",32.042985,-81.191779
"Lincoln","MO",38.390856,-93.33465
"Moville","IA",42.488881,-96.072519
"Round Valley","CA",37.419376,-118.587619
"Lehman","TX",33.621766,-102.798543
"Canyon Creek","TX",32.392695,-97.740516
"Knappa","OR",46.18511,-123.585967
"Branchdale","PA",40.673193,-76.32223
"Greenwich Heights","KS",37.653349,-97.20532
"La Grande","OR",45.324577,-118.087719
"Blue River","CO",39.42971,-106.043907
"South New Berlin","NY",42.529519,-75.385175
"McDonald","NC",34.554052,-79.175593
"Raeville","NE",41.896398,-98.053953
"Monmouth Junction","NJ",40.378996,-74.546544
"Seama","NM",35.039765,-107.524771
"Intercession City","FL",28.262512,-81.507851
"Rockland","ID",42.573247,-112.877213
"New Richmond","WI",45.123021,-92.536586
"Columbia Station","OH",41.313107,-81.946806
"Beluga","AK",61.141111,-151.082778
"Berlin","OH",40.561173,-81.794301
"Reading","PA",40.335648,-75.926875
"Goleta","CA",34.435829,-119.827639
"Mount Carmel","TN",36.545377,-82.66099
"Holtsville","NY",40.815376,-73.045108
"Smoaks","SC",33.089607,-80.813988
"Winton","WA",47.735398,-120.741205
"Palmer","MA",42.158427,-72.328693
"Martinsville","OH",39.323951,-83.814926
"Edwall","WA",47.504602,-117.951066
"Russell","ND",48.671405,-100.901539
"Walworth","WI",42.531128,-88.599546
"Longworth","TX",32.650391,-100.345661
"Carmel","LA",32.087384,-93.620735
"Warsaw","VA",37.958745,-76.758014
"Robbins","CA",38.870177,-121.706353
"Mertzon","TX",31.261832,-100.817326
"Kenesaw","NE",40.621125,-98.657571
"Barrows","MN",46.301078,-94.253887
"Truscott","TX",33.754254,-99.811204
"Chavies","KY",37.34787,-83.356291
"Viola","MN",44.063298,-92.268224
"Fincastle","TN",36.409801,-84.047701
"Meppen","IL",38.996994,-90.604843
"Waco","GA",33.702885,-85.183282
"Glendale","CO",39.70364,-104.935123
"Ferriday","LA",31.630166,-91.554565
"La Honda","CA",37.319109,-122.274135
"Kenyon","MN",44.272187,-92.985484
"Brookside","NJ",40.794267,-74.567935
"Lakewood Park","ND",48.071667,-98.929567
"Penfield","IL",40.303368,-87.946701
"Hampden Sydney","VA",37.242375,-78.459717
"Creal Springs","IL",37.619495,-88.836731
"Rice","TX",32.243759,-96.498597
"Stanton","ND",47.32111,-101.381548
"Townsend","MT",46.319098,-111.520802
"Dunlap","OH",39.292279,-84.618002
"Finesville","NJ",40.608434,-75.171008
"Tarrants","MO",39.356712,-91.182921
"Varnville","SC",32.850445,-81.079272
"Artesia","MS",33.415399,-88.643937
"Fort Montgomery","NY",41.331483,-73.986807
"Ham Lake","MN",45.250243,-93.249951
"Deerfield","WI",43.051943,-89.075667
"Kobuk","AK",66.907222,-156.881111
"Hastings","MI",42.645868,-85.29084
"Point Hope","AK",68.348611,-166.734722
"Patchogue","NY",40.765654,-73.015108
"Doniphan","MO",36.620892,-90.823455
"Lake Elsinore","CA",33.668077,-117.327262
"Negaunee","MI",46.499102,-87.611803
"Corcovado","PR",18.458557,-66.776287
"Stanton","NE",41.950284,-97.223934
"West Chicago","IL",41.884751,-88.203961
"Venice Gardens","FL",27.073112,-82.407596
"Morales","TX",29.127478,-96.762479
"Deweese","NE",40.354733,-98.138657
"Unalakleet","AK",63.873056,-160.788056
"Landover","MD",38.934,-76.89664
"Peachtree City","GA",33.396783,-84.595763
"Double Oak","TX",33.065122,-97.110567
"Mitchellville","TN",36.631986,-86.540828
"Penryn","CA",38.852122,-121.169393
"Point","TX",32.931509,-95.871354
"Bath","MI",42.818644,-84.448588
"Tryon","NC",35.208169,-82.238448
"Williamsburg","PA",40.462017,-78.199732
"Graceton","PA",40.505901,-79.166145
"Fruitland","UT",40.212731,-110.839605
"Suitland","MD",38.848724,-76.923862
"College City","AR",36.125347,-90.939287
"Brunswick Gardens","NJ",40.390663,-74.336259
"Airport Drive","MO",37.142559,-94.510782
"Marquand","MO",37.429221,-90.168168
"Loco Hills","NM",32.819006,-103.97773
"Longford","KS",39.169996,-97.331413
"Barber","MT",46.313291,-109.385177
"Bingham Lake","MN",43.906624,-95.046379
"South Solon","OH",39.737838,-83.613255
"Fort Shawnee","OH",40.686717,-84.137726
"Gowan","MN",46.864111,-92.847146
"Loving","TX",33.264279,-98.510611
"Springfield","FL",30.153257,-85.611315
"Joel","WI",45.360515,-92.234632
"Winterhaven","CA",32.739491,-114.634675
"Marlton","NJ",39.891225,-74.921832
"Henderson","GA",32.341268,-83.789347
"Kitzmiller","WV",39.387876,-79.182258
"Lake Pine","NJ",39.865948,-74.84933
"Monte Rio","CA",38.465469,-123.008889
"Palmview","TX",26.233406,-98.37085
"Thornburg","PA",40.434513,-80.082278
"Midland","PA",40.445762,-80.3322845
"Diamond","IL",41.288643,-88.251729
"Oakford","PA",40.148443,-74.963779
"Brookhaven","PA",39.869279,-75.382414
"Thatcher","ID",42.408811,-111.726893
"Barberville","FL",29.187202,-81.420901
"Richwood","MN",46.974681,-95.822822
"Capon Bridge","WV",39.298156,-78.436119
"Kimbrough","AL",32.033482,-87.565278
"Lytton","CA",38.659354,-122.871662
"Brownsville","MN",43.694136,-91.279857
"East Millinocket","ME",45.627553,-68.574475
"Knik","AK",61.457778,-149.728889
"Maunabo","PR",18.007189,-65.899329
"Berlin","OK",35.454553,-99.649161
"Wewela","SD",43.01056,-99.780949
"Cicero","WI",44.573599,-88.387324
"Sabana Grande","PR",18.077739,-66.960455
"Kent Park","MA",42.108435,-70.689761
"Moodus","CT",41.502877,-72.450087
"East Carondelet","IL",38.541997,-90.232891
"Zion","MO",37.42172,-90.310116
"Kendall","FL",25.67927,-80.317274
"Moose Pass","AK",60.4875,-149.368889
"Wisner","LA",31.980991,-91.65568
"Clements","KS",38.300016,-96.740848
"Oil City","PA",41.433948,-79.706441
"Muskegon Heights","MI",43.201126,-86.238946
"Ballardvale","MA",42.625093,-71.160612
"Lincoln","MN",46.210243,-94.640848
"Schaghticoke","NY",42.900077,-73.585394
"Hillsboro","OR",45.522894,-122.989827
"Wolfforth","TX",33.505919,-102.009057
"Bridgewater","MA",41.990379,-70.975043
"Irvington","IA",43.007468,-94.195517
"Afton","OK",36.697634,-94.9868
"Weott","CA",40.321807,-123.921706
"East Springfield","OH",40.450621,-80.860364
"Bassville Park","FL",28.840545,-81.768689
"Wausaukee","WI",45.370804,-87.952333
"Plainfield","VT",44.278115,-72.426493
"Zion","MD",39.675667,-75.964945
"Greenfield","IL",39.343658,-90.212615
"Black Rock","NM",35.088366,-108.791194
"Fall River","WI",43.384434,-89.045111
"Beatrice","NE",40.268056,-96.74697
"Pickrell","NE",40.378612,-96.728635
"Woodville","OH",41.45144,-83.36576
"Norwich","KS",37.45724,-97.848943
"Syracuse","UT",41.089388,-112.064666
"Blue Jay","CA",34.246117,-117.209764
"Dittlinger","TX",29.681058,-98.179176
"Cousins Island","ME",43.75897,-70.143659
"Perkinsville","VT",43.373684,-72.513702
"Oak Brook","IL",41.832808,-87.92895
"Sitka","KY",37.880648,-82.838217
"Gulfport","FL",27.748361,-82.703433
"Tillicum","WA",47.123431,-122.55707
"Jackson Center","OH",40.439493,-84.04022
"Seven Corners","VA",38.872056,-77.155258
"Manila","UT",40.988014,-109.72265
"Malaga","NM",32.22401,-104.072437
"Westby","WI",43.656916,-90.854298
"Hibbing","MN",47.427155,-92.937689
"Ariel","WA",45.956779,-122.570935
"Wasilla","AK",61.581389,-149.439444
"Wallace","FL",30.677414,-87.17997
"Goochland","VA",37.684313,-77.885274
"El Indio","TX",28.511928,-100.311182
"Olvey","AR",36.190905,-92.966006
"Lattimore","NC",35.318182,-81.660651
"Exeter Corners","ME",44.984786,-69.14532
"Savoy","MA",42.566751,-73.028711
"Put/in/Bay","OH",41.654216,-82.820743
"Dune Acres","IN",41.649482,-87.085867
"Moncure","NC",35.622651,-79.078349
"Silver Bay","MN",47.294365,-91.257386
"Cypress Quarters","FL",27.25199,-80.813949
"Byars","OK",34.878194,-97.073805
"Earle","TX",29.263294,-98.490849
"Wayan","ID",42.978253,-111.376888
"Grayling","MT",44.805482,-111.194392
"Weedville","PA",41.276727,-78.491687
"Springville","PA",41.697576,-75.917697
"Olean","MO",38.410863,-92.529354
"Badger","MN",48.782479,-96.014448
"Westwood","NJ",40.991209,-74.03264
"Greenfield","IN",39.785043,-85.769423
"Lesslie","SC",34.890701,-80.956466
"Pojoaque","NM",35.892803,-106.023078
"Euclid","OH",41.593105,-81.526787
"Saint Joe","AR",36.030074,-92.804612
"West Union","OH",38.794517,-83.545193
"Centerview","MO",38.744178,-93.845218
"Hamilton","KS",37.97947,-96.164165
"Richland","WA",46.285691,-119.284462
"Brentwood","AR",35.860081,-94.107147
"Holly Grove","AR",34.595931,-91.199844
"Sonora","CA",37.984091,-120.382138
"Angola","IN",41.634773,-84.999409
"Chickaloon","AK",61.796667,-148.462778
"Indian Trail","NC",35.076814,-80.669235
"Sherburne","LA",30.514915,-91.719003
"Kipahulu","HI",20.65471,-156.05526
"Slate Springs","MS",33.740685,-89.371113
"Dauphin Island","AL",30.255481,-88.109722
"Clines Corners","NM",35.009498,-105.66918
"Warren","NY",42.847295,-74.920986
"Oyster Bay","NY",40.865654,-73.532068
"Winside","NE",42.176392,-97.175048
"Serafina","NM",35.397545,-105.32362
"Lincoln","MI",44.684735,-83.412194
"Vinson","OK",34.904559,-99.883606
"North Freedom","WI",43.459706,-89.868458
"Townsend","MA",42.666756,-71.705072
"Cedar Grove","CA",36.790774,-118.670378
"Sandwich","NH",43.790351,-71.411184
"Magnolia","WV",39.56176,-78.426956
"Buffalo","KY",37.512005,-85.698573
"Riverton","OR",43.157332,-124.274555
"Norcatur","KS",39.836949,-100.187914
"Coatesville","IN",39.687824,-86.670282
"Fairfax","VT",44.665327,-73.008749
"Mont Alto","PA",39.844259,-77.558323
"Argyle","NY",43.237852,-73.491502
"North Reading","MA",42.575094,-71.078665
"South Uniontown","PA",39.892854,-79.746989
"Brighton","MO",37.45782,-93.347971
"Hubbardston","MA",42.473701,-72.006188
"Alba","TX",32.792903,-95.634404
"Spring Grove","MN",43.56108,-91.635979
"Rocklake","ND",48.790166,-99.246084
"Cruz Bay","VI",18.331343,-64.79375
"Peoria Heights","IL",40.747259,-89.573984
"Canonsburg","PA",40.26257,-80.18728
"Teller","AK",65.263611,-166.360833
"Hereford","SD",44.387209,-102.895451
"Brooksville","AL",34.16204,-86.475543
"Lane","SC",33.521555,-79.878685
"Tierra Amarilla","NM",36.700292,-106.549757
"Star","ID",43.692107,-116.493463
"Lancaster","VA",37.76986,-76.466339
"Daisy","GA",32.151861,-81.834559
"Green Harbor","MA",42.07788,-70.649481
"Motley","MN",46.336632,-94.646125
"Movico","AL",31.064623,-88.025555
"Baker","IL",41.555587,-88.811189
"Retsof","NY",42.83534,-77.878894
"Shannon","NC",34.847941,-79.136978
"Farmington","AR",36.042025,-94.247152
"Stephen","MN",48.449979,-96.872562
"Lock Springs","MO",39.8489,-93.777439
"Riverhead","NY",40.917043,-72.66204
"Saybrook","IL",40.426701,-88.526171
"Jonesville","VA",36.688978,-83.111005
"East Cape Girardeau","IL",37.295884,-89.496202
"Warm Springs","VA",38.046237,-79.790607
"Dodge","TX",30.745469,-95.397997
"Gordonville","TX",33.795659,-96.853058
"Chromo","CO",37.0364,-106.84337
"La Salle","MN",44.070792,-94.569694
"Cusseta","AL",32.784852,-85.305778
"McClave","CO",38.137507,-102.850476
"Kittanning","PA",40.816453,-79.521989
"Holly Springs","MS",34.767597,-89.448689
"Ashley","OH",40.40895,-82.955461
"Hillsboro","OH",39.202287,-83.611587
"Dellwood","WI",43.984135,-89.938739
"Kitsap Lake","WA",47.582872,-122.708478
"Lane","SD",44.069711,-98.42509
"Natural Steps","AR",34.862034,-92.475436
"Lizemores","WV",38.333993,-81.17511
"Lafitte","LA",29.666879,-90.108407
"Ocean Isle Beach","NC",33.894339,-78.426672
"Spafford","NY",42.804512,-76.26493
"Newlonsburg","PA",40.424512,-79.664489
"Mountain Home","ID",43.13295,-115.691198
"Wooster","OH",40.805056,-81.935143
"Sebring","FL",27.495592,-81.440907
"Pembroke","GA",32.136033,-81.622057
"Thorndale","PA",39.992885,-75.745222
"Roll","IN",40.552266,-85.39025
"Malinta","OH",41.32255,-84.038
"Brownsville","MD",39.382045,-77.660269
"Buena Vista","AR",33.48734,-92.955164
"Lincoln","ME",45.362279,-68.505025
"Georgetown","PA",40.835719,-78.656677
"Oak City","UT",39.374956,-112.335498
"Bankston","IA",42.51861,-90.961242
"Monte Vista","CO",37.57917,-106.148084
"Holiday Lakes","TX",29.209688,-95.516887
"Schuyler","NE",41.447231,-97.059479
"Hastings","MN",44.743301,-92.852427
"Hannover","ND",47.111388,-101.42654
"Wellston","MI",44.216951,-85.957853
"Goshen","IN",41.582272,-85.834438
"Highfill","AR",36.261468,-94.357711
"Brandenberg","MT",45.816113,-106.233064
"Rose Creek","MN",43.603576,-92.831854
"Natrona","KS",37.711962,-98.66481
"Cinebar","WA",46.604273,-122.531781
"Hitchita","OK",35.523772,-95.775163
"Petersburg","AK",56.811267,-132.951243
"Yah/ta/hey","NM",35.628076,-108.780364
"Featherville","ID",43.609897,-115.258138
"Olivehurst","CA",39.095448,-121.552186
"Sanford","ME",43.439249,-70.774225
"Seagoville","TX",32.639578,-96.538323
"Cascades","VA",39.046511,-77.387302
"Cumberland Hill","RI",41.974543,-71.467004
"Sahuarita","AZ",31.957582,-110.955646
"Jamesport","MO",39.974733,-93.801054
"Chewsville","MD",39.642874,-77.634991
"Grand Canyon","AZ",36.054427,-112.139336
"Prior Lake","MN",44.713297,-93.422727
"Longfellow","TX",30.16185,-102.638484
"North Logan","UT",41.769375,-111.804665
"Chenequa","WI",43.111674,-88.392319
"Galena","MD",39.340667,-75.878828
"Rome","KY",37.721159,-87.180831
"Guadalupita","NM",36.137535,-105.238622
"Live Oak","TX",29.565229,-98.336403
"Port Lavaca","TX",28.614997,-96.626089
"Glencoe","AL",33.957043,-85.93247
"Vollmar","CO",40.134983,-104.838862
"Dodge Center","MN",44.02802,-92.854638
"Harper Woods","MI",42.433092,-82.924083
"Irvington","IL",38.439216,-89.162851
"Omro","WI",44.039426,-88.744277
"Calypso","NC",35.153776,-78.105269
"Elmwood Park","IL",41.921142,-87.809227
"Wickersham","WA",48.655111,-122.212936
"Coatsburg","IL",40.032825,-91.15764
"Flemingsburg","KY",38.4223,-83.733808
"La Prairie","MN",47.228276,-93.489102
"Sophia","NC",35.823192,-79.860868
"Iola","WI",44.508034,-89.130667
"Cleo","TX",30.603796,-99.875071
"Everton","MO",37.342548,-93.702428
"Pacolet Mills","SC",34.922629,-81.742601
"Oaks","OK",36.170145,-94.878458
"Dooling","GA",32.230439,-83.927959
"Telford","PA",40.325815,-75.327549
"Spruce","WI",44.95249,-88.164823
"Milroy","PA",40.713957,-77.590551
"Pueblo","NM",35.327275,-105.435304
"Homewood","IL",41.557257,-87.665601
"Four Corners","TX",29.668566,-95.657725
"Colemans Lake","GA",32.82099,-82.275124
"Morristown","TN",36.213981,-83.294892
"Bluefield","VA",37.252617,-81.27121
"Lamkin","TX",31.823206,-98.264206
"Otoe","NE",40.723613,-96.116952
"Southworth","WA",47.512042,-122.501797
"Moline","KS",37.360315,-96.303888
"Ethel","LA",30.791293,-91.130662
"Campton Hills","IL",41.93749,-88.397849
"Calumet Park","IL",41.662812,-87.660604
"Eastlake","OH",41.653936,-81.450392
"Hebbville","MD",39.341495,-76.762751
"East Dundee","IL",42.098914,-88.271469
"Lincoln","MA",42.425928,-71.303947
"Maury City","TN",35.814796,-89.225624
"Dighton","MA",41.813991,-71.120323
"Jauca","PR",17.969133,-66.365725
"Midway","WA",47.30482,-122.589573
"Adell","WI",43.619163,-87.952036
"Blandburg","PA",40.687007,-78.410851
"Delavan Lake","WI",42.584182,-88.632602
"Dentsville","SC",34.064043,-80.958145
"Gladwin","MI",43.980855,-84.486401
"Brian Head","UT",37.692755,-112.850777
"Chopin","LA",31.496839,-92.859322
"Fort Towson","OK",34.022664,-95.290127
"Buechel","KY",38.19507,-85.651905
"Morrison","OK",36.301218,-97.031876
"Hardy","NE",40.008902,-97.926987
"Plainfield","WI",44.213862,-89.492342
"McConnico","AZ",35.143889,-114.093563
"Longrun","MO",36.649229,-92.723224
"Almira","WA",47.710982,-118.940846
"Vowinckel","PA",41.411452,-79.228653
"Saxon","WI",46.493281,-90.414347
"Menlo","IA",41.519154,-94.40441
"Sedan","NM",36.144478,-103.130493
"Nicasio","CA",38.061588,-122.698598
"Humptulips","WA",47.232865,-123.959341
"Okolona","AR",33.997326,-93.337953
"Boquillas Crossing","TX",29.188817,-102.94544
"Shelby","WI",43.769135,-91.160967
"Melvin Village","NH",43.688965,-71.304237
"Big Plain","OH",39.838672,-83.289083
"Pylesville","MD",39.689827,-76.373016
"Mount Hope","WI",42.967209,-90.859016
"Lubec","ME",44.860636,-66.984145
"Wellsboro","IN",41.497265,-86.7653
"Red Cloud","NE",40.088903,-98.519505
"New Iberia","LA",30.003536,-91.818729
"Wabasso","FL",27.748362,-80.436163
"Seagraves","TX",32.944265,-102.564915
"Turin","NY",43.627291,-75.41129
"Pelahatchie","MS",32.312923,-89.79841
"Auburn","WA",47.307323,-122.228453
"Selma","NC",35.536549,-78.284443
"Angus","TX",32.006267,-96.433037
"Louann","AR",33.390955,-92.791828
"Ligonier","IN",41.465882,-85.587485
"Bergen Park","CO",39.691377,-105.36166
"Chaplin","CT",41.794821,-72.127299
"Chesapeake","VA",36.819037,-76.27494
"Marlow","OK",34.652079,-97.981876
"Saxonburg","PA",40.753954,-79.810053
"Long Mott","TX",28.482501,-96.760538
"Ogdensburg","WI",44.451925,-89.031777
"Lucerne Mines","PA",40.558956,-79.151145
"Gorum","LA",31.432952,-92.943491
"Baker","ID",45.094646,-113.734506
"Chillicothe","IA",41.085568,-92.529355
"Cypert","AR",34.4901,-90.956226
"Salt Lick","KY",38.120081,-83.614635
"Snow Hill","MD",38.177063,-75.392696
"Fairland","MD",39.07622,-76.957753
"McDonald","NM",33.14067,-103.317448
"Ramsey","AR",33.874271,-92.553768
"Mapleton","PA",40.393687,-77.941111
"Douglass","KS",37.519464,-97.012815
"Deora","CO",37.58029,-102.966592
"Radcliffe","IA",42.315261,-93.434376
"San Felipe Pueblo","NM",35.433925,-106.446693
"Shafter","CA",35.500514,-119.271776
"Barber","MD",38.642061,-76.019939
"Boydsville","AR",36.334229,-90.383715
"Avilla","AR",34.682592,-92.585161
"Inwood","WV",39.357878,-78.039999
"Aynor","SC",33.999888,-79.199487
"Dermott","TX",32.854549,-101.015679
"Wayne","PA",40.043998,-75.387691
"Riddle","OR",42.950951,-123.364233
"Glencoe","AR",36.294233,-91.747368
"Kettle Falls","WA",48.610735,-118.055822
"Runnelstown","MS",31.375729,-89.111723
"Seward","OK",35.802052,-97.512158
"Prairie Point","MS",33.147347,-88.393649
"Pleasant Green","MO",38.806131,-92.962696
"Peak","SC",34.240703,-81.32343
"Fashing","TX",28.79248,-98.139729
"Burket","IN",41.155322,-85.968605
"Collison","IL",40.225036,-87.803916
"White Hills","AZ",35.738045,-114.397466
"Abbottsburg","NC",34.517114,-78.725018
"Magnolia","IL",41.113646,-89.194529
"Weissert","NE",41.46723,-99.443161
"Orchard Valley","WY",41.096649,-104.819413
"Roper","GA",31.81213,-82.651528
"Templeville","MD",39.136223,-75.766044
"Star Lake","NY",44.159785,-75.031583
"Watrous","NM",35.790597,-104.981668
"Byesville","OH",39.969794,-81.536511
"Tinton Falls","NJ",40.304277,-74.100419
"Vayas","PR",18.052186,-66.584062
"Saunders","KS",37.471128,-102.039344
"Foster","WI",44.643017,-91.311824
"Lanham","MD",38.967055,-76.861917
"Izee","OR",44.067092,-119.386071
"Bowmore","NC",34.942109,-79.303092
"Osburn","ID",47.506038,-115.99933
"Arnold","CA",38.255473,-120.351031
"Morland","KS",39.349449,-100.075685
"Warren","MI",42.49982,-83.005486
"Tulalip","WA",48.068429,-122.291809
"Cima","CA",35.237764,-115.49916
"Leighton","AL",34.700923,-87.528915
"Hinton","IA",42.62777,-96.291693
"Savannah","TN",35.224803,-88.249204
"Glenwood","NM",33.316729,-108.883119
"Bendon","MI",44.633057,-85.837859
"Tillmans Corner","AL",30.590193,-88.170835
"Thornton","TX",31.411008,-96.572201
"Perrydale","OR",45.042617,-123.255659
"Shawboro","NC",36.405433,-76.094096
"McFadden","WY",41.654412,-106.130565
"Terrace Park","OH",39.159227,-84.30716
"Calhoun","KY",37.538935,-87.258332
"Pomeroy","IA",42.551088,-94.683869
"Fort Worth","TX",32.725409,-97.32085
"Cedarville","IL",42.375849,-89.633173
"Yerkes","KY",37.277316,-83.301011
"Monmouth","OR",44.848452,-123.233989
"Berlin","PA",39.920636,-78.957802
"Reading","OH",39.223669,-84.442164
"Midway","UT",40.512177,-111.474355
"Biggsville","IL",40.85365,-90.864862
"Garden","MI",45.7747,-86.550695
"Orrville","OH",40.843666,-81.764021
"Cameron","WI",45.40857,-91.744059
"Mountain City","TX",30.037159,-97.88695
"Spotted Horse","WY",44.708316,-105.835014
"Rosemead","CA",34.080565,-118.072846
"Tarnov","NE",41.615843,-97.502268
"Princeton","AR",33.981768,-92.624604
"Oxford","AR",36.221178,-91.929316
"Washington","IA",41.299184,-91.692945
"Cochran","TX",30.028833,-96.129405
"North Sutton","NH",43.363965,-71.939527
"Vandemere","NC",35.184056,-76.663539
"Moapa","NV",36.675805,-114.620823
"Cedar Grove","WA",47.435657,-122.062062
"Calico Rock","AR",36.119514,-92.135987
"Glen Avon","CA",34.01168,-117.484771
"Artesia","NM",32.842334,-104.403296
"Payson","IL",39.816991,-91.242366
"Edmundson","MO",38.735884,-90.364004
"Verdel","NE",42.81111,-98.192577
"Oil City","OK",34.527082,-98.096878
"Royal","IA",43.065529,-95.283888
"Millen","GA",32.804051,-81.949281
"Malone","AL",33.198729,-85.584122
"Collins","OH",41.258663,-82.491283
"Glenmore","WI",44.372771,-87.947876
"Lyon","MS",34.217886,-90.542043
"Falcon","TX",26.638108,-99.095589
"Coleman","TX",31.827368,-99.426453
"Mercer Island","WA",47.570655,-122.222067
"Paytes","VA",38.227355,-77.832772
"Lucy","NM",34.652009,-105.836956
"Woodson Terrace","MO",38.725051,-90.358449
"Bridgewater","NH",43.638407,-71.736468
"Summit","NY",42.57952,-74.588202
"Carrsville","VA",36.711817,-76.82607
"McDaniels","KY",37.606723,-86.424978
"Wayside","WI",44.255271,-87.952596
"Bay","AR",35.742299,-90.562331
"Lockhart","AL",31.010458,-86.349669
"Malo","WA",48.801558,-118.606969
"Hot Springs Landing","NM",33.207295,-107.210587
"Conesus Lake","NY",42.775648,-77.713507
"Westfall","KS",38.930006,-98.011437
"Makinen","MN",47.357152,-92.367684
"Lamont","MS",33.535391,-91.076219
"University Gardens","NY",40.777324,-73.722631
"McKeesport","PA",40.347847,-79.864215
"Oxford","AL",33.614271,-85.834965
"Bingen","WA",45.714842,-121.464517
"Warren","ME",44.120358,-69.240045
"Reynolds Heights","PA",41.345055,-80.394234
"Sumatra","MT",46.618319,-107.5512
"Mammoth Cave","KY",37.18616,-86.099975
"Cherryfield","ME",44.607299,-67.925837
"Glenvar","VA",37.274023,-80.13393
"Langlade","WI",45.18997,-88.732329
"Saint Charles","ID",42.113819,-111.388818
"Shungnak","AK",66.888056,-157.136389
"Gypsum","KS",38.705559,-97.428086
"Averill Park","NY",42.633969,-73.553726
"Galesburg","IL",40.947816,-90.37124
"Seney","IA",42.852767,-96.130854
"Salt Wells","NV",39.375198,-118.58292
"Arendtsville","PA",39.923149,-77.298596
"Suisun City","CA",38.247118,-122.008525
"Cantil","CA",35.30885,-117.968403
"Lenox","TN",36.089238,-89.498408
"Swansea","MA",41.748157,-71.189768
"Redwood Terrace","CA",37.314664,-122.294969
"Clarion","IA",42.731639,-93.732992
"Wilmont","MN",43.764687,-95.827237
"Lovejoy","GA",33.436225,-84.314368
"Magwalt","TX",31.923737,-103.114613
"Stuyvesant","NY",42.390361,-73.781513
"Cape Elizabeth","ME",43.563696,-70.200047
"Dover","IL",41.436702,-89.393424
"Connell","WA",46.663473,-118.861112
"Deerfield","VA",38.196515,-79.406707
"Doucette","TX",30.818255,-94.42881
"Brundidge","AL",31.720161,-85.816057
"College Springs","IA",40.61916,-95.120812
"Carolina","WV",39.480362,-80.273418
"Ute Park","NM",36.558089,-105.115004
"Big Point","MS",30.586862,-88.48196
"Francis","UT",40.610508,-111.280736
"Black Rock","MA",42.243712,-70.828655
"Escondida","NM",34.101455,-106.896416
"Lake Hughes","CA",34.676929,-118.44536
"Ualapue","HI",21.068705,-156.835477
"Palmer Heights","PA",40.687321,-75.2624
"Harris Hill","NY",42.964781,-78.677529
"Barnstable","MA",41.70011,-70.299466
"Litchfield Park","AZ",33.493374,-112.357936
"Midland","OH",39.306173,-83.91104
"Santa Paula","CA",34.354166,-119.05927
"Lockwood","MT",45.81912,-108.414855
"Hutchins","IA",43.09163,-93.881058
"Pine Lake","MA",42.395927,-71.453674
"Mabel","MN",43.520523,-91.769595
"Ponder","TX",33.182897,-97.28724
"Aguadilla","PR",18.427445,-67.15407
"Isabel","KS",37.466687,-98.550361
"Munroe Falls","OH",41.144501,-81.439834
"Old Bethpage","NY",40.762599,-73.453179
"Fulton","TX",28.061405,-97.041101
"Palmer","NE",41.222235,-98.257285
"Cottonwood","IL",37.889213,-88.213094
"Everly","IA",43.159971,-95.327501
"Loretto","PA",40.503126,-78.630296
"Williamsburg","OH",39.054231,-84.052989
"Ellsworth","IA",42.31276,-93.578825
"Snowville","VA",37.032626,-80.561169
"Riverlea","OH",40.082008,-83.025184
"Briarcliff","TX",30.407421,-98.044459
"Graniteville","SC",33.563748,-81.807889
"Bradshaw","TX",32.098472,-99.897867
"Bronte","TX",31.887367,-100.29176
"Glenoma","WA",46.514555,-122.160099
"South Hooksett","NH",43.026473,-71.435345
"Joseph City","AZ",34.955857,-110.334014
"Lenoxburg","KY",38.74257,-84.224934
"Rome","KS",37.161415,-97.142818
"Pittwood","IL",40.860868,-87.729478
"Ware Shoals","SC",34.398451,-82.246785
"Rushmore","MN",43.61941,-95.800571
"Rockaway Beach","OR",45.613438,-123.942911
"Addison","AL",34.202324,-87.181401
"Patton","IL",38.476992,-87.75364
"Morrice","MI",42.838642,-84.1783
"Lluveras","PR",18.038297,-66.904621
"Corinth","KY",37.6428345,-85.683998
"McConnelsville","OH",39.648682,-81.853191
"Leacock","PA",40.085653,-76.208288
"Parkdale","AR",33.121512,-91.545676
"Eaton","CO",40.530258,-104.711354
"Success","MO",37.443657,-92.087659
"Fortescue","MO",40.05222,-95.318312
"Hobe Sound","FL",27.059498,-80.136432
"Jetersville","VA",37.294318,-78.094167
"Bay Village","OH",41.484766,-81.922084
"Charleston","IL",39.496146,-88.176152
"Caribou","CA",40.080443,-121.15774
"Fred","TX",30.576595,-94.176299
"Colfax","ND",46.469406,-96.874527
"Westwood","MO",38.643664,-90.439841
"Delphia","MT",46.504695,-108.219284
"Taycheedah","WI",43.808878,-88.395106
"Hydro","OK",35.553443,-98.601909
"Warren","MA",42.212593,-72.19119
"Zuehl","TX",29.48551,-98.16612
"Levy","NM",36.088091,-104.686657
"Highlands","TX",29.818836,-95.05604
"Cordova","SC",33.435433,-80.920927
"Marlton","MD",38.773726,-76.78997
"Saint Clairsville","OH",40.080627,-80.900092
"Olney","TX",33.370663,-98.752839
"Palmyra","IN",38.40784,-86.109975
"Parkersburg","IL",38.589771,-88.056703
"Chalkhill","PA",39.844243,-79.616709
"Miramar","FL",25.987314,-80.232271
"Gonzales","TX",29.501626,-97.452493
"Granville","WV",39.645915,-79.987287
"McCord","AK",57.139444,-153.201111
"Little York","IL",41.011148,-90.74625
"Winterville","GA",33.967059,-83.27821
"Holly Springs","NC",35.651266,-78.833622
"Piedmont","SD",44.231653,-103.389075
"Woodstock","IL",42.314744,-88.448702
"Meadow","UT",38.885798,-112.410494
"Fairfax","VA",38.846224,-77.306373
"New Albany","MS",34.494268,-89.007842
"Scotia","NY",42.826465,-73.964292
"Garyville","LA",30.056035,-90.619255
"Shannon","MS",34.11622,-88.711718
"Accomac","VA",37.719574,-75.665485
"Piedmont","SC",34.702339,-82.464571
"Calhoun","LA",32.512647,-92.358474
"Garland","KS",37.73171,-94.622459
"Walnut Bottom","PA",40.089534,-77.403874
"La Puente","CA",34.020011,-117.949508
"Maben","MS",33.555399,-89.084785
"Saint Francisville","LA",30.779905,-91.376502
"Buffalo","KS",37.709767,-95.697482
"Ree Heights","SD",44.518594,-99.200106
"Ash Flat","AR",36.223957,-91.608475
"Nunnelly","TN",35.85951,-87.469181
"Bridgeport","TX",33.210116,-97.754755
"Montgomery","VT",44.902547,-72.63818
"Bruce","FL",30.472418,-85.965214
"Jacksonboro","SC",32.770177,-80.454547
"Willow Lake","SD",44.627469,-97.637027
"Veguita","NM",34.516174,-106.767248
"Marquette Heights","IL",40.617538,-89.600378
"Clayton","AL",31.878216,-85.449663
"Wellington","MO",39.134176,-93.982722
"East Tawakoni","TX",32.884289,-95.929134
"Carriere","MS",30.616857,-89.652565
"Washburn","AR",35.168427,-94.09354
"Royersford","PA",40.184269,-75.537964
"Tall Timbers","MD",38.169016,-76.544956
"Kipnuk","AK",59.938889,-164.041389
"Monte Alto","TX",26.373125,-97.971669
"Ogden Dunes","IN",41.622815,-87.191702
"Burnt Prairie","IL",38.251714,-88.261432
"Rodman","NY",43.851176,-75.940754
"Lockwood","MO",37.385604,-93.953271
"Francisco","IN",38.332269,-87.445295
"Little York","IN",38.702835,-85.904972
"Patagonia","AZ",31.539538,-110.756196
"Grangeville","CA",36.343561,-119.708742
"Willington","SC",33.972065,-82.466797
"Hendrix","AL",34.038153,-86.453319
"Star City","WV",39.658414,-79.986453
"Stony Brook","NY",40.925654,-73.140943
"Robertsville","OH",40.763115,-81.189549
"Cottonwood","ID",46.048492,-116.34959
"Egan","LA",30.236871,-92.505969
"Eldorado","WI",43.824708,-88.621776
"Grand Cane","LA",32.084052,-93.810184
"Hardy","MT",47.186336,-111.805821
"Cassoday","KS",38.038908,-96.639184
"Gore","OK",35.53321,-95.140964
"Forsyth","IL",39.932537,-88.951191
"New Munster","WI",42.579462,-88.227868
"Reston","VA",38.968721,-77.341096
"Alberhill","CA",33.727242,-117.399764
"Chamois","MO",38.67532,-91.769619
"Hastings","NE",40.586125,-98.388393
"Washington Mills","NY",43.05007,-75.272943
"Wall","PA",40.39368,-79.786158
"Luce","MN",46.657737,-95.652821
"Poplar Grove","AR",34.547878,-90.853169
"Canton","IL",40.558095,-90.035117
"Mapleton","OR",44.031232,-123.858165
"Kendrick","ID",46.61406,-116.646542
"Childersburg","AL",33.278169,-86.354977
"Rossville","IL",40.379203,-87.668634
"Pidcoke","TX",31.279057,-97.888358
"Karlsruhe","ND",48.090006,-100.62042
"Sylvan Lake","MI",42.611422,-83.328547
"Lincoln","NM",33.492028,-105.383872
"Stanton","MI",43.292532,-85.081407
"Mohall","ND",48.763356,-101.513217
"Valley Home","CA",37.828816,-120.912157
"Smithfield","WV",39.499528,-80.561761
"Washington Park","IL",38.63505,-90.092885
"Gettysburg","OH",40.111438,-84.495229
"Grayburg","TX",30.121046,-94.411302
"Star City","IN",40.971985,-86.556118
"Coldfoot","AK",67.256389,-150.184167
"Storden","MN",44.037736,-95.318331
"Crete","ND",46.200244,-97.962879
"Republic","OH",41.122,-83.015747
"Buda","TX",30.085213,-97.840283
"Dover","ID",48.251587,-116.611025
"Galva","KS",38.381952,-97.537537
"Beckwourth","CA",39.82018,-120.378822
"Pisek","ND",48.310826,-97.709254
"Woodstown","NJ",39.651503,-75.328245
"Lofgreen","UT",40.024114,-112.310506
"Dulac","LA",29.388832,-90.713978
"Lake Mykee Town","MO",38.676149,-92.10435
"Chama","CO",37.161961,-105.378345
"Crete","NE",40.627782,-96.961417
"Avondale","PA",39.823443,-75.783273
"Shelbiana","KY",37.42538,-82.492929
"Sitka","KS",37.175027,-99.651513
"East Sandwich","MA",41.741774,-70.451693
"Wainscott","NY",40.936766,-72.242859
"Halstead","KS",38.0014,-97.508652
"Rossville","IN",40.41698,-86.594724
"Chester","AR",35.680917,-94.175206
"Leona Valley","CA",34.618321,-118.288133
"Dublin","OH",40.099229,-83.114077
"Genoa","AR",33.383737,-93.909628
"La Crescent","MN",43.828022,-91.304027
"Society Hill","SC",34.512657,-79.850898
"Phoenicia","NY",42.084813,-74.315425
"West Marion","NC",35.657902,-82.025386
"Shallowater","TX",33.688973,-101.998227
"Riverdale","NJ",40.993986,-74.303482
"Oakwood Manor","MO",39.196947,-94.5644
"Ohio City","OH",40.771437,-84.615513
"Darlington","ID",43.813514,-113.414735
"North Plymouth","MA",41.970937,-70.682814
"Chapmanville","WV",37.973711,-82.01735
"San Sebastin","PR",18.336617,-66.990178
"Lincoln","NH",44.045623,-71.670081
"Jasper","TN",35.074245,-85.626079
"Alban","WI",44.627751,-89.284836
"Beaver Dam","KY",37.401992,-86.875826
"Filley","NE",40.286111,-96.535297
"Waltman","WY",43.063296,-107.195896
"Rio Oso","CA",38.961006,-121.544405
"Dillingham","NC",35.753724,-82.406793
"Inglewood","NE",41.416389,-96.501414
"Stanton","MN",44.471911,-93.022989
"Memphis","IN",38.483396,-85.761632
"Jamesport","NY",40.949544,-72.58148
"Volcano","HI",19.427744,-155.234671
"Alva","WY",44.694707,-104.441342
"Ridgely","MD",38.947891,-75.884381
"Tobique","MN",47.115511,-94.039682
"Colfax","NM",36.596701,-104.738328
"Quinnesec","MI",45.806345,-87.988459
"Kaser","NY",41.121207,-74.067086
"Mansfield","SD",45.243032,-98.562873
"Mulvane","KS",37.474464,-97.243932
"Ballplay","AL",34.058709,-85.808023
"Rosewood Heights","IL",38.887825,-90.084829
"Farristown","KY",37.622582,-84.300211
"Ellsworth","IL",40.450313,-88.716734
"Newbold","WI",45.69801,-89.510137
"Kings Canyon","CO",40.926919,-106.226966
"Tuckerton","NJ",39.603174,-74.340145
"Putnam Lake","NY",41.462038,-73.546237
"Charles City","IA",43.066361,-92.672411
"Claverack","NY",42.225088,-73.734569
"Lanagan","MO",36.608128,-94.447716
"Poteet","TX",29.040524,-98.568074
"Gouldsboro","ME",44.478412,-68.038339
"Mill Creek","IL",37.341716,-89.252582
"Dothan","TX",32.556791,-99.097016
"Bath","ME",43.910635,-69.820602
"Dwight","KS",38.844447,-96.593337
"South Hero","VT",44.645323,-73.302353
"Vincent","AL",33.384554,-86.411924
"Belle","MO",38.285879,-91.720442
"Osterville","MA",41.628444,-70.386969
"Northwest","NC",34.312946,-78.161108
"Wayne","OK",34.922078,-97.338254
"Westwood","MI",42.302817,-85.633619
"Naples","TX",33.203177,-94.680205
"Lanark Village","FL",29.883541,-84.595736
"Fort Kent","ME",47.25865,-68.589491
"North Muskegon","MI",43.256125,-86.26756
"Salisbury","CT",41.983426,-73.421232
"Kahaluu","HI",21.458095,-157.841697
"Brightwaters","NY",40.720932,-73.26734
"Linton","IN",39.034767,-87.165846
"Hobart","WI",44.499248,-88.149862
"Snow Hill","NC",35.45155,-77.681086
"Columbus City","IA",41.258636,-91.374322
"Domino","TX",33.265128,-94.115187
"Rogers","OH",40.79145,-80.626183
"Carlton","OR",45.294282,-123.176495
"Seward","PA",40.414238,-79.020029
"Fairhope","PA",40.113684,-79.839768
"Craig","MT",47.074389,-111.96333
"Wellington","ME",45.039778,-69.597273
"Alden","IA",42.520257,-93.376039
"Courtland","AL",34.668979,-87.309465
"Wayne","OH",41.301442,-83.473539
"Erin Springs","OK",34.814855,-97.630481
"Parsons","WV",39.096495,-79.680896
"Chepachet","RI",41.915099,-71.671455
"Smiths Grove","KY",37.052545,-86.207761
"Quitaque","TX",34.366177,-101.057093
"Richmond Heights","OH",41.552829,-81.510121
"Zeba","MI",46.802431,-88.414573
"Cherry Valley","IL",42.234743,-88.948991
"Newfoundland","NJ",41.046486,-74.435155
"Bridgewater","NY",42.879238,-75.250997
"Andalusia","AL",31.308504,-86.483291
"Lincoln","ND",46.762494,-100.700402
"Carter","WY",41.437728,-110.428495
"Washington","IL",40.703648,-89.407312
"Roseville","OH",39.80729,-82.071252
"Cromwell","MN",46.68078,-92.884094
"Warroad","MN",48.905266,-95.314404
"West Frostproof","FL",27.733641,-81.583133
"Parma","ID",43.785162,-116.943209
"Golf","IL",42.058918,-87.792563
"Portsmouth","NH",43.071755,-70.762553
"Duelm","MN",45.572189,-93.934424
"Syosset","NY",40.82621,-73.502068
"Frazer","MT",48.059185,-106.04224
"Willow Run","MI",42.257261,-83.574382
"Ventress","LA",30.681853,-91.408168
"Buckhorn","NM",33.037013,-108.70839
"River Edge","NJ",40.92871,-74.039862
"Dedham","IA",41.906097,-94.822206
"Belvidere","SD",43.831937,-101.271531
"Louise","TX",29.111366,-96.403302
"Engelhard","NC",35.509616,-75.996018
"Fruitland","WA",48.070997,-118.198874
"Escobas","TX",27.062539,-99.023643
"Lincoln","NE",40.800001,-96.66696
"Samnorwood","TX",35.052274,-100.280674
"Pawnee Station","KS",37.700044,-94.791354
"Royal","IL",40.192813,-87.972813
"Halesite","NY",40.888432,-73.415397
"Cloudcroft","NM",32.957313,-105.742486
"Vienna","VA",38.901223,-77.26526
"Avalon","MS",33.655118,-90.085641
"Mekinock","ND",48.012765,-97.363415
"Emblem","WY",44.505789,-108.39178
"Mount Arlington","NJ",40.925932,-74.634883
"Riverdale","ND",47.497499,-101.371271
"Sutcliffe","NV",39.950185,-119.600464
"Emmett","MI",42.990583,-82.764927
"Mendota","TX",35.801432,-100.49819
"Stanton","MO",38.274495,-91.105698
"Waipahu","HI",21.386667,-158.009167
"Hometown","PA",40.823699,-75.980205
"Doniphan","NE",40.771957,-98.369507
"Warren","MT",45.05995,-108.658463
"Hurdle Mills","NC",36.273196,-79.047511
"Ranchester","WY",44.908859,-107.163411
"Altoona","KS",37.523943,-95.66137
"Flintstone","MD",39.703144,-78.567794
"Leonore","IL",41.189479,-88.980635
"Connerville","OK",34.45154,-96.659898
"North East Carry","ME",45.866429,-69.626447
"Romney","TX",32.241524,-98.957842
"Dupree","SD",45.047482,-101.60099
"Wittman","MD",38.793728,-76.294117
"Huron","NY",43.233399,-76.879962
"Harwich Port","MA",41.666778,-70.078628
"Glenwood","NC",35.614569,-81.98205
"Summit","NJ",40.718647,-74.361879
"Washington","IN",38.659215,-87.172789
"Ruthton","MN",44.176633,-96.103918
"North Hurley","NM",32.722855,-108.132543
"Ringgold","GA",34.91591,-85.109117
"Walnut Grove","GA",33.742612,-83.852404
"Jardine","MT",45.069936,-110.634375
"Pierce","OK",35.438771,-95.740162
"Riverdale","NE",40.784456,-99.162313
"McDonald","MS",32.660414,-89.132838
"Pleasant Hill","LA",31.819889,-93.514344
"Burmah","OK",35.830938,-99.098602
"Waynesboro","PA",39.755927,-77.577769
"Bellview","FL",30.461586,-87.314974
"Jakolof Bay","AK",59.446944,-151.510278
"Powers Lake","ND",48.562804,-102.647957
"Keyesport","IL",38.741992,-89.273684
"Port Henry","NY",44.048388,-73.459847
"Saint Marks","KS",37.735845,-97.562269
"Mill Brook","NJ",40.864544,-74.55738
"Horse Creek","WY",41.414978,-105.1822
"Choctaw Bluff","AL",31.388778,-87.788884
"Toksook Bay","AK",60.533775,-165.103663
"Ravensworth","VA",38.804002,-77.220538
"Reads Landing","MN",44.402189,-92.079058
"Leeds","UT",37.238593,-113.359117
"Lake Ozark","MO",38.198644,-92.638797
"Adena","OH",40.21868,-80.872867
"Hanoverton","OH",40.75117,-80.937032
"Swan River","MN",47.086607,-93.194931
"Bold Spring","TN",35.967007,-87.679188
"Circle D/KC Estates","TX",30.161016,-97.234934
"Campbellsville","KY",37.343397,-85.341907
"Parkin","AR",35.268487,-90.560682
"Greenway","SD",45.909704,-99.710952
"Red River","NM",36.708085,-105.406116
"Athol","KS",39.765012,-98.919524
"Kramer Junction","CA",34.992477,-117.541724
"Ovando","MT",47.020216,-113.133115
"Hastings","NY",43.373958,-76.152425
"Delray","WV",39.194548,-78.604179
"Terrell Hills","TX",29.474954,-98.45085
"Snowville","UT",41.965475,-112.709701
"Leominster","MA",42.525091,-71.759794
"Vann Crossroads","NC",35.175444,-78.398059
"Leesburg","GA",31.732116,-84.170742
"Jasper","TX",30.920199,-93.996576
"Leland","GA",33.812328,-84.558821
"Pearlington","MS",30.246584,-89.611167
"City View","SC",34.861506,-82.431512
"Birta","AR",35.017312,-93.13351
"Saint Marie","MT",48.402246,-106.532816
"Ringle","WI",44.891081,-89.425674
"Darlington","IN",40.11004,-86.771951
"Angelica","NY",42.306734,-78.015839
"Olean","NY",42.077565,-78.429742
"Moulton","AL",34.481206,-87.293353
"Beals","ME",44.519801,-67.614993
"Palmyra","IL",39.43477,-89.99594
"Glendale","CA",34.142508,-118.255075
"Dickens","IA",43.131356,-95.023601
"Delft Colony","CA",36.511895,-119.445957
"Avalon","MO",39.659187,-93.4416
"Golconda","IL",37.367274,-88.486432
"Upatoi","GA",32.54875,-84.739928
"Lavaca","AR",35.336202,-94.173264
"Malvado","TX",29.967973,-101.86818
"Fossil","OR",44.998186,-120.216137
"Stanton","MS",31.615999,-91.240388
"Allentown","GA",32.593212,-83.225713
"Silsbee","TX",30.349098,-94.177962
"West Point","GA",32.877906,-85.183275
"Diamond City","AR",36.464511,-92.920173
"Saltdale","CA",35.359128,-117.887567
"Jackson Center","PA",41.272835,-80.13895
"West Gate","VA",38.782893,-77.49749
"Trail","MN",47.779958,-95.692241
"Schultz","WV",39.320076,-81.240114
"Clanton","AL",32.838737,-86.629426
"Hinsdale","IL",41.800864,-87.937005
"Smithfield","IL",40.473374,-90.29179
"Davis","WV",39.128719,-79.464774
"Orderville","UT",37.275817,-112.63771
"Sparta","IL",38.123105,-89.701766
"Queenstown","MD",38.990668,-76.157727
"Bonita","LA",32.919296,-91.677067
"North Bay Village","FL",25.846207,-80.153935
"Denison","TX",33.755659,-96.536658
"North Edwards","CA",35.016641,-117.832843
"Fithian","IL",40.113924,-87.873086
"Rossville","IA",43.189424,-91.375692
"Hermanville","MS",31.959325,-90.840103
"Sanford","MI",43.672805,-84.380554
"Benson","IL",40.85059,-89.122302
"Argyle","MN",48.332755,-96.820895
"Canton","IA",42.163345,-90.895696
"Hunter","KS",39.234175,-98.397283
"Macy","NE",42.113047,-96.356416
"Trophy Club","TX",32.997901,-97.183625
"Hobart","WA",47.421768,-121.972893
"Westwood","MA",42.213987,-71.224499
"Cressey","CA",37.41966,-120.667421
"Yabucoa","PR",18.05052,-65.879329
"Campbell","NY",42.233129,-77.197475
"Joyce","WA",48.136477,-123.734087
"Fordland","MO",37.15755,-92.940731
"Carson","CA",33.831406,-118.282016
"Lancaster","WI",42.84749,-90.710682
"Boulder","MT",46.236595,-112.120834
"Round Mountain","CA",40.794044,-121.941941
"Batesville","AL",32.009046,-85.311048
"Parkesburg","PA",39.958716,-75.919393
"Scotia","NE",41.466401,-98.703134
"Argyle","MO",38.294485,-92.023783
"Johnson Village","CO",38.810829,-106.106684
"Peoria","MS",31.141565,-90.680934
"Warren","MN",48.196642,-96.77284
"Black Creek","NC",35.635159,-77.93304
"Istachatta","FL",28.659991,-82.27759
"Winfield","AL",33.928993,-87.817246
"Hodge","LA",32.276822,-92.723486
"Dotyville","OK",36.862907,-94.932629
"Hawley","TX",32.612064,-99.814259
"Maple Park","IL",41.907528,-88.599249
"Clarks Hill","SC",33.670965,-82.172898
"Fairmount","MD",38.090401,-75.817431
"South Gifford","MO",40.025744,-92.683114
"Georgetown","OH",38.864514,-83.904094
"Hesston","KS",38.138344,-97.431427
"Accokeek","MD",38.667617,-77.028309
"Wood/Ridge","NJ",40.845655,-74.087919
"Batesville","AR",35.769799,-91.640972
"Auburndale","FL",28.065297,-81.788691
"Oregon","IL",42.014751,-89.332328
"Dillon","CO",39.630264,-106.043352
"Whitewater","KS",37.964737,-97.147535
"Broad Creek","NC",34.720717,-76.936331
"Cozad","NE",40.859729,-99.987344
"Alta","UT",40.588839,-111.637979
"Three Creek","ID",42.071297,-115.159503
"Hiouchi","CA",41.792614,-124.072022
"Massac","KY",37.016722,-88.730608
"Bairoa La Vienticinco","PR",18.263567,-66.021499
"Ashley","PA",41.21036,-75.896586
"Phelps","NY",42.957564,-77.057471
"Stella","MO",36.761458,-94.191323
"Enterprise","AL",31.315171,-85.855216
"Adelino","NM",34.715891,-106.731137
"Lamar","SC",34.168766,-80.062568
"Sloat","CA",39.866562,-120.727446
"Christoval","TX",31.193501,-100.498705
"Wacousta","MI",42.827812,-84.70082
"Wilmore","KY",37.862023,-84.66161
"Nada","TX",29.404967,-96.386356
"Grays Hill","SC",32.493523,-80.742328
"Charleston","IA",40.590873,-91.531268
"Westel","TN",35.863127,-84.75522
"Clarks","NE",41.215293,-97.835889
"Brooklyn","IL",38.658662,-90.165943
"Wiscon","FL",28.540828,-82.46204
"Pepper Pike","OH",41.478386,-81.46373
"Craig","MO",40.194719,-95.37109
"Forrest","NM",34.794787,-103.601349
"Winter Haven","FL",28.022243,-81.732857
"Big Bend","WI",42.881403,-88.206757
"Sydney","ND",46.730815,-98.769826
"Daufuskie Landing","SC",32.104376,-80.885388
"Brodhead","WI",42.618342,-89.376228
"Stanfield","TX",33.969264,-97.999759
"Glen Este","OH",39.098951,-84.257992
"Porter Center","NY",43.249499,-78.957543
"French Gulch","CA",40.700703,-122.638351
"Midland","OR",42.130702,-121.820281
"Pecan Plantation","TX",32.360419,-97.675582
"McKinleyville","CA",40.946515,-124.100621
"Tibbie","AL",31.362113,-88.248621
"Webster","SD",45.33218,-97.520089
"San Patricio","TX",27.954462,-97.771942
"Lake Tansi","TN",35.872846,-85.054402
"Bowmont","ID",43.455996,-116.540959
"Easton","MA",42.024544,-71.128659
"Spanish Fort","AL",30.674913,-87.915272
"Glenwood","NJ",41.251206,-74.489603
"Parkersburg","IA",42.57748,-92.786863
"Hardman","OR",45.169859,-119.681963
"Briar Creek","PA",41.045918,-76.282159
"Masters","CO",40.309426,-104.244951
"Ratcliff","TX",31.39157,-95.13966
"Huron","OH",41.395049,-82.555173
"Heflin","LA",32.456265,-93.264057
"Sutton","MA",42.150095,-71.762848
"Great Falls","MT",47.500235,-111.300808
"Washington","CT",41.631484,-73.310673
"Mentone","AL",34.579528,-85.59052
"Ravenswood","WV",38.948137,-81.760965
"Merchantville","NJ",39.947335,-75.066562
"Mountain City","GA",34.918147,-83.385436
"Alma","NE",40.097511,-99.362043
"Redwater","MS",32.766802,-89.536738
"Dover","DE",39.158168,-75.524368
"Atlantic","NC",34.884886,-76.340471
"Bokchito","OK",34.021266,-96.166546
"Paynes Creek","CA",40.335435,-121.91499
"Rochester","PA",40.702288,-80.286451
"Sunset Valley","PA",40.305348,-79.739211
"Crescent Lake","OR",43.509291,-121.969474
"Zela","WV",38.285941,-80.949823
"East Saint Louis","IL",38.624495,-90.150943
"Pike","NY",42.556452,-78.152787
"Kitty Hawk","NC",36.06461,-75.705735
"Belgrade","MN",45.453021,-95.004461
"Padroni","CO",40.777765,-103.172704
"Summerfield","LA",32.912643,-92.829325
"Verden","OK",35.087344,-98.111608
"Malden/on/Hudson","NY",42.095368,-73.934023
"Parnell","TX",34.523114,-100.603738
"Deering","ND",48.395572,-101.05182
"Nittany","PA",40.997565,-77.556105
"Banner","MS",34.088721,-89.384799
"Littlefork","MN",48.398832,-93.555716
"Greenleafton","MN",43.580243,-92.209332
"Kirkwood","KY",37.916463,-84.923286
"Dexter City","OH",39.657851,-81.472067
"Gorman","NC",36.036534,-78.82334
"Mills River","NC",35.388448,-82.566789
"Leipers Fork","TN",35.895621,-86.997781
"Copper Canyon","TX",33.095955,-97.096678
"Fort Jennings","OH",40.906439,-84.296616
"Melbourne Village","FL",28.085294,-80.666444
"Dows","IA",42.656642,-93.50104
"Valley Springs","AR",36.157573,-92.992951
"Rivanna","VA",38.124858,-78.460844
"Caseyville","IL",38.636716,-90.025661
"Vermont","IL",40.294211,-90.427903
"Glenwood","OR",45.649278,-123.270947
"Kenhorst","PA",40.310648,-75.939376
"Hamilton","NC",35.944603,-77.209684
"Glassport","PA",40.324792,-79.892271
"Colcord","WV",37.944276,-81.437053
"Pensacola","OK",36.459034,-95.154304
"Dublin","NC",34.656836,-78.726407
"Toledo","OR",44.621507,-123.938448
"Wayne","NY",42.470905,-77.105526
"Milan","WA",47.96684,-117.331606
"Kingsford","MI",45.794956,-88.072071
"Watervliet","NY",42.730078,-73.70123
"Frazee","MN",46.728015,-95.700878
"Lodoga","CA",39.301831,-122.489152
"Woodville","MS",31.104619,-91.299555
"Northland","MI",46.073007,-87.59569
"Carver","KY",37.641205,-83.050169
"Penelope","TX",31.86016,-96.926664
"Saint Paul","KY",38.67091,-83.087121
"University Park","IL",41.51913,-87.7003285
"Massillon","OH",40.796724,-81.521509
"Osage","IA",43.284138,-92.811028
"Aneta","ND",47.679438,-97.988151
"Copper City","MI",47.283535,-88.387057
"Putnam","OK",35.859549,-98.99221
"Lynn Garden","TN",36.577045,-82.567653
"Salesville","TX",32.912346,-98.088099
"Wesley","AR",36.0273,-93.920197
"Tracy","MN",44.233291,-95.619177
"Sumter","GA",31.949333,-84.25491
"Lenexa","KS",38.953617,-94.733571
"Calais","ME",45.188963,-67.278604
"Bristol","WI",42.558908,-88.04925
"Big Chimney","WV",38.405653,-81.535678
"Alborn","MN",46.972996,-92.576026
"Madisonville","LA",30.404361,-90.157023
"Davidson Heights","PA",40.5834,-80.259783
"Longwood","FL",28.703052,-81.338401
"Avenal","CA",36.004122,-120.129027
"Chesapeake","WV",38.223435,-81.536229
"Half Moon","NC",34.825996,-77.459409
"Holt","MO",39.45278,-94.342169
"La Grange","KY",38.407567,-85.378847
"Roanoke","MO",39.316976,-92.688795
"New Vineyard","ME",44.804225,-70.121452
"Lebanon Church","VA",39.055107,-78.368061
"Kellogg","IA",41.718048,-92.907416
"Berlin","MA",42.381204,-71.637012
"Benoit","MS",33.651501,-91.009551
"Stoneville","SD",44.7336,-102.654612
"Wahkon","MN",46.11829,-93.521073
"Voltaire","ND",48.020563,-100.841537
"Addieville","IL",38.391439,-89.490088
"Tracy","MO",39.376944,-94.793017
"Hillsboro","MS",32.459308,-89.511458
"Pandora","OH",40.948108,-83.961054
"Greenbrier","AR",35.233971,-92.387655
"South Greenfield","MO",37.376159,-93.841044
"Stovall","GA",32.960961,-84.851877
"Tangent","OR",44.541233,-123.10815
"Pine Grove Mills","PA",40.733674,-77.885557
"Dunn Loring","VA",38.893445,-77.221648
"Damascus","VA",36.633727,-81.78373
"Holt","MN",48.291916,-96.192531
"Watauga","SD",45.92278,-101.542911
"Lansdowne","VA",39.084609,-77.483691
"Tularosa","NM",33.073973,-106.018603
"Deering","NH",43.073136,-71.844523
"Nesbit","MS",34.881763,-90.008702
"Wood River","IL",38.861159,-90.097607
"Juncal","PR",18.31384,-66.919066
"Carter","WI",45.3908,-88.627886
"Quinter","KS",39.069451,-100.232355
"Littlefield","AZ",36.887199,-113.929688
"Cornish","CO",40.523037,-104.413287
"Kachina Village","AZ",35.096958,-111.69266
"Hillsboro","MT",45.099956,-108.232894
"Imperial Beach","CA",32.583944,-117.113085
"Saint Leo","KS",37.529185,-98.410355
"Denning","NY",41.950926,-74.489043
"Philadelphia","MS",32.771523,-89.116727
"New Whiteland","IN",39.558104,-86.095264
"Englewood","CO",39.647765,-104.98776
"Morrison","MO",38.672822,-91.636281
"North Salem","NY",41.334817,-73.571237
"Huntington","IN",40.883101,-85.497476
"Henderson","TX",32.153216,-94.79938
"Belgrade","MO",37.786715,-90.849297
"Springlake","KY",38.995062,-84.464941
"Linwood","GA",34.712857,-85.289122
"Beaver Crossing","NE",40.778619,-97.282268
"Falfurrias","TX",27.226987,-98.144171
"Friendship Heights","MD",38.963294,-77.089965
"Wagener","SC",33.652371,-81.361214
"Dix","IL",38.441716,-88.937563
"Mankato","KS",39.787234,-98.210051
"Boonville","NY",43.48368,-75.336561
"Rhodes","IA",41.925544,-93.186314
"Welaka","FL",29.479138,-81.671469
"Swords","GA",33.544294,-83.306828
"Guerneville","CA",38.501857,-122.99611
"Pearl River","NY",41.058985,-74.021806
"Owensboro","KY",37.774215,-87.11333
"Havre de Grace","MD",39.549279,-76.091617
"Draketown","GA",33.826216,-85.044112
"Evergreen","LA",30.952691,-92.108734
"Green Valley","SD",44.035544,-103.111289
"Hermantown","MN",46.806885,-92.238246
"Port Matilda","PA",40.799504,-78.054174
"Hudson Bend","TX",30.417144,-97.929179
"Whitsett","NC",36.071247,-79.564469
"Bonner","MT",46.873259,-113.864548
"North Prairie","WI",42.934456,-88.405374
"Basin","MT",46.271318,-112.263621
"Bluefield","WV",37.26984,-81.222319
"Grand Forks","ND",47.925257,-97.032855
"Berkley","MA",41.845935,-71.082822
"Pearland","TX",29.563567,-95.286047
"Leander","LA",31.148518,-92.84654
"Mocanaqua","PA",41.141194,-76.138818
"Jacksons Mills","NJ",40.147891,-74.324036
"Loon Lake","NY",44.551715,-74.056816
"Palm Beach Shores","FL",26.778118,-80.035596
"Oak Hill","AL",31.920983,-87.082763
"Goodlow","TX",32.109065,-96.215144
"Traer","KS",39.928338,-100.666261
"Saratoga","NC",35.65377,-77.775534
"Sterling","MI",44.033354,-84.022772
"Rocky Grove","PA",41.405058,-79.831999
"East Lake","MN",46.538281,-93.283565
"Potters Hill","NC",34.968775,-77.710253
"East Lexington","VA",37.79291,-79.425315
"Fresno","TX",29.538846,-95.447441
"Ashley","MO",39.251155,-91.220424
"Hillsboro","MO",38.232277,-90.562903
"Hoyt","KS",39.247775,-95.706371
"Saint Johnsburg","NY",43.088668,-78.889761
"Robertsville","NJ",40.34622,-74.287924
"Rolling Hills","WY",42.902744,-105.84417
"Goshen","VT",43.849508,-73.022056
"Blue Mound","IL",39.701152,-89.123136
"Grainton","NE",40.823056,-101.287382
"Lovington","IL",39.71559,-88.632564
"Revloc","PA",40.492294,-78.764188
"San Saba","TX",31.195723,-98.718098
"Parish","NY",43.406181,-76.125758
"Hettinger","ND",46.001395,-102.636824
"Coolidge","KS",38.04168,-102.008793
"Honeydew","CA",40.244306,-124.12282
"Comptche","CA",39.264895,-123.591122
"Earling","IA",41.775543,-95.4175
"Aiken","SC",33.560417,-81.719553
"Buffalo","SD",45.584164,-103.546025
"Williamstown","NJ",39.686226,-74.995168
"Tara","IA",42.500249,-94.2958
"Groveville","NJ",40.169832,-74.671547
"Mexican Water","AZ",36.966946,-109.63789
"Seneca","PA",41.378671,-79.703941
"Hastings","OK",34.230705,-98.133823
"Berlin","MD",38.322615,-75.217689
"Red Corral","CA",38.411648,-120.605516
"Kirvin","TX",31.766555,-96.330254
"Hallam","NE",40.53778,-96.787246
"Tracy","MT",47.413016,-111.154134
"The Village of Indian Hill","OH",39.2207125,-84.3149645
"Savannah","GA",32.083541,-81.099834
"Chelan","WA",47.84097,-120.016459
"Temple City","CA",34.107231,-118.057846
"Soldier Summit","UT",39.928569,-111.077945
"Fletcher","KY",37.005091,-83.970206
"Pinesburg","MD",39.629263,-77.858052
"Jeisyville","IL",39.577271,-89.405092
"Mount Bethel","GA",33.966212,-84.411317
"Granville","VT",43.984786,-72.846222
"Leonidas","MN",47.461595,-92.571851
"Corona","CA",33.875293,-117.566438
"Dublin","NH",42.907582,-72.062582
"Valle Crucis","NC",36.209294,-81.778444
"Lakeview","AL",34.390923,-85.978308
"Ladue","MO",38.649774,-90.380673
"Timberon","NM",32.620931,-105.694144
"Grand Isle","VT",44.722544,-73.292354
"Waterford","WI",42.763072,-88.214256
"Haynesville","LA",32.962085,-93.140165
"Eddyville","KY",37.094497,-88.080301
"Milan","WI",44.981078,-90.179579
"Nehalem","OR",45.720107,-123.894023
"Buchanan","MI",41.827268,-86.361125
"Georgetown","NY",42.7684,-75.736577
"Elrod","NC",34.614052,-79.241984
"Magnetic Springs","OH",40.352838,-83.261306
"Lenzburg","IL",38.287271,-89.817323
"Ila","GA",34.172609,-83.292099
"Ellamar","AK",60.895556,-146.6975
"Wild Horse","CO",38.825832,-103.011597
"Melrude","MN",47.245489,-92.417132
"McCullom Lake","IL",42.368354,-88.292588
"Bird Island","MN",44.767461,-94.895552
"Muddy Gap","WY",42.351624,-107.457289
"Grover Hill","OH",41.019216,-84.476617
"Pineville","NC",35.083201,-80.892296
"Landover Hills","MD",38.943167,-76.892195
"Biggs","OR",45.669846,-120.832841
"Stacy","MN",45.398021,-92.98744
"Grove Lake","MN",45.614131,-95.157526
"Towers Corners","NY",43.25811,-79.009212
"Quinwood","WV",38.057616,-80.706756
"Buffalo","SC",34.725689,-81.683434
"Montgomery","WV",38.174104,-81.324096
"Cove City","NC",35.187384,-77.320792
"Yountville","CA",38.401578,-122.36081
"Marked Tree","AR",35.532859,-90.420658
"Belgrade","MT",45.77604,-111.176897
"East Rockwood","MI",42.048377,-83.210761
"Cambridge","OK",35.076781,-99.22914
"West Union","MN",45.800798,-95.08336
"Robbins","IL",41.643923,-87.70366
"Dasher","GA",30.747428,-83.220704
"Piedmont","KS",37.62364,-96.36556
"Myrtle Grove","NC",34.134616,-77.881652
"Delavan","IL",40.372541,-89.547325
"Okeechobee","FL",27.243935,-80.829783
"Summit","OR",44.637897,-123.578717
"Crescent City","FL",29.430251,-81.510629
"Ignacio","CO",37.115004,-107.633113
"Pleasant Ridge","MI",42.471147,-83.142148
"Winsted","MN",44.963852,-94.047472
"New River","TN",36.382578,-84.548551
"Woodridge","IL",41.746975,-88.050341
"Wesson","MS",31.701277,-90.397593
"Midland","NC",35.227366,-80.500622
"Centuria","WI",45.451348,-92.554092
"Euclid","MN",47.971917,-96.638951
"Lillian","AL",30.412976,-87.436923
"Indian Hills","NM",34.983176,-106.139751
"Vineland","CO",38.245558,-104.459415
"Saint Libory","IL",38.362549,-89.709819
"Lyndon","KY",38.256738,-85.601628
"Ransom","IL",41.156145,-88.649513
"French Village","IL",38.600328,-90.050106
"Goodnews Bay","AK",59.118889,-161.5875
"Lecompton","KS",39.044445,-95.394697
"Antonino","KS",38.783901,-99.392606
"El Paso","WI",44.769689,-92.344075
"Hunnewell","MO",39.668096,-91.861832
"New Douglas","IL",38.970046,-89.666479
"Avalon","PA",40.500902,-80.067555
"Bradley","IL",41.141977,-87.861154
"Hanover","IN",38.714226,-85.473571
"Woodstock","VT",43.624236,-72.518428
"Parrish","FL",27.587536,-82.425094
"Millstone","NJ",40.499271,-74.588768
"Redcrest","CA",40.400417,-123.950042
"Paradise Park","CA",37.010227,-122.043575
"Lakeview","AR",36.368678,-92.545441
"Waltreak","AR",34.983982,-93.612416
"New Holland","PA",40.101764,-76.085227
"Columbiana","OH",40.888393,-80.693964
"Mount Vernon","IN",37.932266,-87.895027
"Yorktown Heights","NY",41.270927,-73.777634
"Simla","CO",39.141655,-104.083848
"Whiting","ME",44.790912,-67.175541
"Leach","OK",36.208758,-94.946237
"Steptoe","WA",47.006002,-117.356018
"Palominas","AZ",31.379823,-110.118411
"Gardner","ND",47.147197,-96.967861
"Renner Corner","SD",43.645252,-96.711439
"Bell","CA",33.977514,-118.187016
"Westway","TX",31.958713,-106.578047
"Leiter","WY",44.718039,-106.269202
"Fittstown","OK",34.618759,-96.658235
"Frazer","PA",40.032329,-75.556038
"Kirtland Hills","OH",41.623936,-81.307051
"Adair","OK",36.440705,-95.295141
"Westville","IL",40.042259,-87.638632
"Cruger","MS",33.320956,-90.232306
"Circleville","TX",30.637419,-97.435557
"Simonton Lake","IN",41.754216,-85.975001
"Butte","AK",61.542222,-149.033333
"Ida","MI",41.910879,-83.573547
"East Longmeadow","MA",42.06454,-72.512586
"Pegram","ID",42.142711,-111.128806
"Sherry","WI",44.584129,-89.915683
"Pleasant Grove","AL",34.2173175,-86.445958
"Longstreet","LA",32.097664,-93.952132
"Brownsville","OR",44.393457,-122.984811
"New Burlington","OH",39.562005,-83.965487
"Minocqua","WI",45.871342,-89.710981
"Hanover","IL",42.256405,-90.279573
"Doering","WI",45.235242,-89.458176
"McDonald","PA",40.370902,-80.234781
"Brooklyn","IN",39.539214,-86.36916
"Walterboro","SC",32.90517,-80.666769
"Blackshear","GA",31.306051,-82.242066
"Shueyville","IA",41.850563,-91.646564
"Brownwood","TX",31.70932,-98.991161
"Manns Choice","PA",40.002581,-78.59113
"Greenwood","AR",35.215649,-94.255766
"Holt","MT",48.082176,-114.109838
"Warren","PA",41.843949,-79.145044
"Capitola","CA",36.975228,-121.953293
"Ingomar","MS",34.40927,-89.036731
"Camptown","VA",36.683312,-76.89639
"Meservey","IA",42.912744,-93.478261
"Waynesboro","MS",31.674883,-88.646147
"Webb","AL",31.260453,-85.273266
"Berkley","MI",42.503091,-83.183539
"Grove","KS",39.167498,-95.859154
"Bar Mills","ME",43.613136,-70.549776
"Fort Lee","NJ",40.850933,-73.970138
"Lehigh","IA",42.359973,-94.052177
"Mackville","WI",44.343598,-88.415105
"Stockbridge","GA",33.544278,-84.233809
"Fordville","ND",48.217493,-97.790645
"Damascus","GA",31.299068,-84.718808
"Vesta","GA",33.956505,-82.938476
"Shelton","NE",40.779181,-98.730908
"Groveton","TX",31.054907,-95.125769
"Sterling","MA",42.437592,-71.760627
"Lakeside","UT",41.22243,-112.865534
"Hooper","CO",37.742778,-105.875299
"Henderson","TN",35.439244,-88.641441
"Peach Orchard","MO",36.365619,-89.933979
"Homer","MI",42.145877,-84.80886
"Havre","MT",48.549999,-109.684089
"Millhurst","NJ",40.253722,-74.341537
"Ingomar","MT",46.576654,-107.3723
"Westville","IN",41.54143,-86.900582
"Puente","TX",35.445604,-101.88574
"Knauertown","PA",40.171487,-75.726866
"Carey","ID",43.307683,-113.944752
"La Luz","NM",32.977865,-105.941934
"Nelson","MT",46.816884,-111.809153
"Mulberry","NC",36.239576,-81.180642
"Wayne","NJ",40.925376,-74.276537
"Brookhaven","NY",40.779265,-72.915383
"Pinetta","FL",30.594096,-83.352371
"New Albany","PA",41.600075,-76.441887
"Lexington","IN",38.652282,-85.625241
"Dahlonega","GA",34.532594,-83.98491
"Lakeside","VA",37.607646,-77.476929
"Van Metre","SD",44.159428,-100.79375
"Fort Mohave","AZ",35.000396,-114.57485
"McIntyre","GA",32.846258,-83.19071
"Laurie","MO",38.199197,-92.833524
"Rogers","NE",41.465284,-96.915031
"Breckenridge","TX",32.755677,-98.90229
"Concession","LA",29.831041,-90.003959
"Bristol","VT",44.133391,-73.079008
"Greer","ID",46.3899,-116.17514
"Baldwin","WI",44.966632,-92.374358
"Cameron","WV",39.827024,-80.566467
"Apple Valley","UT",37.089706,-113.124388
"Yellow Pine","ID",44.964906,-115.493725
"Chambersburg","IN",38.518112,-86.392207
"Afton","MN",44.902745,-92.783537
"Atalissa","IA",41.571136,-91.165989
"Frankton","IN",40.222817,-85.778867
"Portland","KS",37.077804,-97.312266
"Summerlin South","NV",36.124382,-115.33247
"South Westport","MA",41.570937,-71.057819
"Ashaway","RI",41.423433,-71.785624
"Rogers","ND",47.072764,-98.199538
"Coosada","AL",32.497913,-86.33136
"Esperance","NY",42.761186,-74.256518
"New Augusta","MS",31.202403,-89.034774
"Marble Canyon","AZ",36.815543,-111.637661
"Aldan","PA",39.921501,-75.287963
"Oxnard","CA",34.197505,-119.177052
"Titley","TX",30.483491,-103.588789
"Dexter","KY",36.742833,-88.296425
"Primrose","WI",42.907778,-89.667622
"Shenandoah","VA",38.485124,-78.625016
"Lexington","IL",40.641424,-88.7834
"Lessley","MS",31.161285,-91.429559
"Norwood","LA",30.967678,-91.103995
"Tilghmanton","MD",39.533432,-77.740826
"Chehalis","WA",46.662048,-122.964017
"Huntington","IA",43.491624,-94.79193
"Bonnie","IL",38.202827,-88.903399
"Colony","KS",38.070863,-95.365536
"Ione","WA",48.741026,-117.417189
"Maskell","NE",42.689998,-96.982545
"Tool","TX",32.267925,-96.170252
"Hillburn","NY",41.123984,-74.169312
"Urbana","KS",37.558108,-95.399424
"Greenfield","CA",35.794825,-120.123347
"Hatley","GA",31.899344,-83.613223
"Homer","MN",44.021352,-91.556535
"North Vandergrift","PA",40.607288,-79.559489
"Kathryn","ND",46.678031,-97.968712
"Glenvil","NE",40.50418,-98.253108
"Portsmouth","OH",38.731743,-82.997674
"Brilliant","AL",34.02538,-87.758357
"Pierce","NE",42.19917,-97.526725
"Sewal","IA",40.644174,-93.258823
"Glade Mills","PA",40.72451,-79.924223
"Monowi","NE",42.828609,-98.329802
"North Houston","TX",29.925501,-95.515219
"Detroit","KS",38.935,-97.120851
"Ashley","MI",43.186696,-84.474435
"Winnabow","NC",34.149337,-78.093605
"Mauldin","SC",34.77873,-82.310119
"Churchton","MD",38.802616,-76.536902
"Midville","GA",32.819046,-82.234846
"Hidalgo","IL",39.155873,-88.146983
"Farrsville","TX",30.983531,-93.807403
"Breezy Point","MN",46.602511,-94.217496
"Sac City","IA",42.422203,-94.989711
"Youngsville","LA",30.099647,-91.990121
"Leesburg","FL",28.810823,-81.877858
"Riverton","MN",46.459964,-94.051933
"Macomb","IL",40.459208,-90.671797
"Dixie Inn","LA",32.59515,-93.338503
"Moingona","IA",42.016927,-93.932452
"Richwood","OH",40.426448,-83.296863
"Pinesdale","MT",46.329366,-114.216765
"University Park","IA",41.286951,-92.618525
"Waldo","KS",39.118344,-98.798135
"Patetown","NC",35.460717,-77.924985
"Williamson","WV",37.674268,-82.277363
"Martins Ferry","OH",40.095906,-80.724526
"Clarkdale","AZ",34.771132,-112.057937
"Pyramid","NV",40.074906,-119.701859
"Tate","GA",34.418425,-84.382702
"Archdale","NC",35.914581,-79.971983
"Cedar Grove","IN",39.356997,-84.937735
"Alamo","TN",35.784795,-89.117288
"Sumidero","PR",18.218567,-66.128778
"Big Spring","KY",37.799232,-86.152191
"Goss","MS",31.355452,-89.888692
"Gravel Ridge","AR",34.868423,-92.190704
"Warm Mineral Springs","FL",27.059779,-82.260092
"Hato Arriba","PR",18.355782,-67.034068
"Wendell","ID",42.775737,-114.704217
"Twin Lakes","WI",42.531129,-88.248146
"Kendall","WA",48.917065,-122.135984
"Maurice","LA",30.108537,-92.124569
"Oldenburg","IN",39.339773,-85.204406
"Yewed","OK",36.686201,-98.433859
"Alma","NY",42.012567,-78.057783
"Mill Shoals","IL",38.248659,-88.346712
"Chaptico","MD",38.367557,-76.783146
"McKeansburg","PA",40.678424,-76.023544
"Goodings Grove","IL",41.629198,-87.930889
"Summit","OK",35.66988,-95.446533
"Elsinore","UT",38.682748,-112.14826
"Lone Oak","GA",33.171788,-84.816045
"Tilton","GA",34.665083,-84.939388
"Solomons","MD",38.318458,-76.454119
"Loretto","MN",45.054685,-93.635516
"Mathias","WV",38.877889,-78.866135
"Mapleton","ND",46.889137,-97.052587
"Denaud","FL",26.742289,-81.510077
"Voca","TX",31.011003,-99.184497
"South Dos Palos","CA",36.964392,-120.653239
"Washington","DC",38.895112,-77.036366
"Fairbank","IA",42.639151,-92.04712
"Walker","MI",43.001413,-85.768091
"Gatesville","TX",31.435164,-97.743911
"Orting","WA",47.097879,-122.204282
"Queen City","TX",33.148741,-94.150187
"Crouse","NC",35.420967,-81.30536
"Snowdoun","AL",32.241531,-86.296356
"Denham","MN",46.363835,-92.942983
"Garrett","TX",32.363476,-96.654713
"Solitude","IN",38.014767,-87.898916
"Hillsboro","MD",38.91678,-75.938827
"Knollwood","TX",33.68955,-96.61916
"Gratiot","OH",39.951178,-82.215978
"Milton Mills","NH",43.501191,-70.963675
"Woodsdale","OH",39.434502,-84.475778
"Luray","VA",38.665397,-78.459452
"Vetal","SD",43.214444,-101.376817
"Opal","SD",44.891655,-102.450442
"Wayne","NE",42.230559,-97.017824
"Duanesburg","NY",42.76202,-74.133738
"Lake Helen","FL",28.980819,-81.233394
"Creta","OK",34.520687,-99.573597
"Glenridge","MA",42.245931,-71.321446
"Black River Falls","WI",44.294683,-90.851531
"Baker","CA",35.264981,-116.074457
"Pierceville","KS",37.878356,-100.676822
"Theta","TN",35.778679,-87.050283
"Brownsville","OH",39.767987,-81.6704055
"Exton","PA",40.028996,-75.620765
"Berwind","WV",37.268725,-81.666775
"Holt","MI",42.640591,-84.515254
"Pettigrew","AR",35.817857,-93.648522
"Ossining","NY",41.162873,-73.861525
"Gouldsboro","PA",41.244529,-75.456018
"French Camp","MS",33.293181,-89.399516
"Valmora","NM",35.816429,-104.923055
"New Pine Creek","CA",41.992665,-120.297178
"Asherville","KS",39.405837,-97.976989
"East Arcadia","NC",34.382113,-78.323335
"Poulan","GA",31.512958,-83.787675
"Stella","PR",18.321893,-67.246847
"Tierra Bonita","TX",26.271462,-97.82583
"Canton","CT",41.824542,-72.893712
"Galena","OH",40.215063,-82.879901
"Goss","MO",39.513928,-91.94239
"Orange Cove","CA",36.624394,-119.31373
"Meriwether","SC",33.65291,-82.159564
"Buffalo Grove","IL",42.151415,-87.959794
"Bairdstown","OH",41.172831,-83.607987
"Ward","WV",38.246492,-81.38817
"East Point","AL",34.183154,-86.793611
"Swanzey","NH",42.869804,-72.281752
"Melody Hill","IN",38.026153,-87.515848
"Golden Meadow","LA",29.379111,-90.260079
"Mercer","WI",46.165504,-90.062665
"Fairland","OK",36.755131,-94.87124
"Spring Hill","TX",32.562923,-94.802157
"Norwood","KY",38.252015,-85.61135
"Center","TX",31.795451,-94.179086
"Lodgepole","NE",41.149709,-102.636304
"Taos Pueblo","NM",36.438638,-105.544455
"Belgrade","ME",44.447289,-69.832549
"Smale","AR",34.710375,-91.10401
"Duane Lake","NY",42.753132,-74.107627
"Colbert","OK",33.857104,-96.526275
"Nelson","MN",45.889407,-95.264201
"Wellston","OK",35.698175,-97.087146
"Milnor","ND",46.259128,-97.456202
"Beaumont","KY",36.875612,-85.651914
"Conasauga","TN",35.004521,-84.729383
"Williamstown","NY",43.423959,-75.889915
"Lytton","IA",42.423036,-94.859707
"Gwynn","VA",37.5043,-76.288553
"Avondale","MO",39.15417,-94.546899
"Fort Benton","MT",47.818303,-110.667436
"Hiawatha","UT",39.484411,-111.011556
"Ladoga","IN",39.913655,-86.801118
"Miller City","OH",41.102828,-84.131334
"Vanderbilt","TX",28.823045,-96.617477
"Anderson","IA",40.801389,-95.604163
"Garden Ridge","TX",29.634671,-98.305291
"Mountain Mesa","CA",35.639398,-118.405639
"Cerrillos","NM",35.437815,-106.122522
"Monell","WY",41.590517,-108.483993
"Ferguson","IA",41.936934,-92.865753
"Lennon","MI",42.984448,-83.930024
"Vera","IL",39.034211,-89.113125
"Paw Paw","KY",37.437609,-82.110687
"Central Pacolet","SC",34.913463,-81.748435
"Apollo Beach","FL",27.773084,-82.407594
"Rex","GA",33.592054,-84.269922
"Greenacres","CA",35.383293,-119.109827
"Toledo","OH",41.663938,-83.555212
"Herscher","IL",41.049199,-88.097826
"Martinsville","MS",31.790996,-90.407037
"Conway","IA",40.748599,-94.618855
"Marche","AR",34.863423,-92.362376
"Madison","VA",38.380406,-78.257503
"Mount Savage","MD",39.695642,-78.879744
"Gasque","AL",30.253259,-87.819712
"Coal Valley","IL",41.428646,-90.460965
"Robertsburg","WV",38.655364,-81.951248
"Spickard","MO",40.2439,-93.594388
"India Hook","SC",35.007368,-81.021744
"Orange City","IA",43.007209,-96.058352
"Barnesville","GA",33.054571,-84.15575
"Williamsburg","NM",33.116183,-107.293362
"Lignite","AK",63.909444,-149.018333
"Greendale","KY",38.10591,-84.525496
"Crystal Lake Park","MO",38.622275,-90.434286
"Valley Forge","PA",40.097051,-75.469636
"Perrysville","PA",40.534791,-80.032833
"Park Falls","WI",45.934398,-90.441553
"Webbers Falls","OK",35.514877,-95.153743
"El Paso de Robles","CA",35.639406,-120.655849
"McAllen","TX",26.203407,-98.230012
"Lytle Creek","CA",34.259173,-117.500051
"New Holstein","WI",43.949992,-88.084264
"Claire City","SD",45.857181,-97.103697
"Alamo","TX",26.183685,-98.123064
"Woodville","MA",42.237595,-71.562009
"Luis Lopez","NM",33.988955,-106.885304
"Bethel","AK",60.792222,-161.755833
"Jacksontown","OH",39.959509,-82.412931
"Wellston","OH",39.123405,-82.532938
"Palmyra","WI",42.877788,-88.586212
"Nelson","MO",38.994744,-93.032696
"Rocky Mountain","OK",35.809314,-94.791232
"Westervelt","IL",39.478928,-88.861741
"Bucyrus","KS",38.726399,-94.718291
"Hanging Limb","TN",36.23701,-85.161908
"Roslyn","WA",47.223452,-120.993139
"Westwood","PA",39.971773,-75.85328
"Boonville","NC",36.232636,-80.708121
"Grayson","OK",35.507107,-95.896556
"Hico","TX",31.982925,-98.033645
"Slabtown","PA",40.905087,-76.408836
"Black Hawk","MS",33.326235,-90.011751
"Ballard","MO",38.361409,-94.143278
"Clifton","AZ",33.050897,-109.296183
"Blossom","TX",33.661496,-95.385786
"Mountain Valley","AR",34.629258,-93.056846
"Denham","MS",31.653772,-88.525583
"Twin Lakes","WA",48.262171,-118.359055
"Armbrust","PA",40.223682,-79.55115
"Holmes City","MN",45.833571,-95.541154
"South Pass City","WY",42.468288,-108.799836
"Sandston","VA",37.523479,-77.315812
"Mappsburg","VA",37.577633,-75.76354
"Weeksville","NC",36.205436,-76.147707
"De Smet","SD",44.38747,-97.550354
"Eastlake","MI",44.244894,-86.293566
"Ulster","PA",41.845908,-76.501888
"Erie","KS",37.568107,-95.243311
"Wabbaseka","AR",34.36093,-91.795966
"Dodsonville","OH",39.202285,-83.814648
"Donaldson","PA",40.635922,-76.4119
"Fair Oaks","GA",33.916492,-84.544655
"Emmitsburg","MD",39.704542,-77.326931
"Redmond","OR",44.27262,-121.173921
"Elroy","NC",35.342662,-77.908595
"Redland","TX",31.8905815,-95.1099445
"Limestone","FL",27.365599,-81.898973
"Zimmerman","MN",45.443299,-93.589962
"Hollywood","SC",32.734344,-80.241765
